{
	"cities": [
		{
			"id": 262,
			"wikiDataId": "Q612",
			"type": "CITY",
			"city": "Dubai",
			"name": "Dubai",
			"country": "United Arab Emirates",
			"countryCode": "AE",
			"region": "Dubai",
			"regionCode": "DU",
			"latitude": 25.269722222,
			"longitude": 55.309444444
		},
		{
			"id": 466804,
			"type": "ADM2",
			"city": "Abu Dhabi Municipality",
			"name": "Abu Dhabi Municipality",
			"country": "United Arab Emirates",
			"countryCode": "AE",
			"region": "Abu Dhabi Emirate",
			"regionCode": "AZ",
			"latitude": 24.41361,
			"longitude": 54.43295
		},
		{
			"id": 659,
			"wikiDataId": "Q1519",
			"type": "CITY",
			"city": "Abu Dhabi",
			"name": "Abu Dhabi",
			"country": "United Arab Emirates",
			"countryCode": "AE",
			"region": "Abu Dhabi Emirate",
			"regionCode": "AZ",
			"latitude": 24.478055555,
			"longitude": 54.368611111
		},
		{
			"id": 900,
			"wikiDataId": "Q289693",
			"type": "CITY",
			"city": "Sharjah",
			"name": "Sharjah",
			"country": "United Arab Emirates",
			"countryCode": "AE",
			"region": "Sharjah Emirate",
			"regionCode": "SH",
			"latitude": 25.3575,
			"longitude": 55.391944444
		},
		{
			"id": 466805,
			"type": "ADM2",
			"city": "Al Ain Municipality",
			"name": "Al Ain Municipality",
			"country": "United Arab Emirates",
			"countryCode": "AE",
			"region": "Abu Dhabi Emirate",
			"regionCode": "AZ",
			"latitude": 24.15223,
			"longitude": 55.8204
		},
		{
			"id": 644,
			"wikiDataId": "Q234600",
			"type": "CITY",
			"city": "Al Ain",
			"name": "Al Ain",
			"country": "United Arab Emirates",
			"countryCode": "AE",
			"region": "Abu Dhabi Emirate",
			"regionCode": "AZ",
			"latitude": 24.2075,
			"longitude": 55.744722222
		},
		{
			"id": 757542,
			"type": "ADM2",
			"city": "Ras Al Khaimah",
			"name": "Ras Al Khaimah",
			"country": "United Arab Emirates",
			"countryCode": "AE",
			"region": "Ras al-Khaimah",
			"regionCode": "RK",
			"latitude": 25.46116,
			"longitude": 56.04058
		},
		{
			"id": 35,
			"type": "CITY",
			"city": "Ras Al Khaimah City",
			"name": "Ras Al Khaimah City",
			"country": "United Arab Emirates",
			"countryCode": "AE",
			"region": "Ras al-Khaimah",
			"regionCode": "RK",
			"latitude": 25.78953,
			"longitude": 55.9432
		},
		{
			"id": 466806,
			"type": "ADM2",
			"city": "Al Dhafra",
			"name": "Al Dhafra",
			"country": "United Arab Emirates",
			"countryCode": "AE",
			"region": "Abu Dhabi Emirate",
			"regionCode": "AZ",
			"latitude": 23.65745,
			"longitude": 53.72225
		},
		{
			"id": 345009,
			"type": "CITY",
			"city": "Musaffah",
			"name": "Musaffah",
			"country": "United Arab Emirates",
			"countryCode": "AE",
			"region": "Abu Dhabi Emirate",
			"regionCode": "AZ",
			"latitude": 24.35893,
			"longitude": 54.48267
		},
		{
			"id": 638,
			"wikiDataId": "Q530171",
			"type": "CITY",
			"city": "Ajman",
			"name": "Ajman",
			"country": "United Arab Emirates",
			"countryCode": "AE",
			"region": "Ajman Emirate",
			"regionCode": "AJ",
			"latitude": 25.399444444,
			"longitude": 55.479722222
		},
		{
			"id": 466803,
			"type": "ADM2",
			"city": "Al Fujairah Municipality",
			"name": "Al Fujairah Municipality",
			"country": "United Arab Emirates",
			"countryCode": "AE",
			"region": "Fujairah",
			"regionCode": "FU",
			"latitude": 25.13557,
			"longitude": 56.33279
		},
		{
			"id": 757533,
			"type": "ADM2",
			"city": "Umm AL Quwain",
			"name": "Umm AL Quwain",
			"country": "United Arab Emirates",
			"countryCode": "AE",
			"region": "Umm al-Quwain",
			"regionCode": "UQ",
			"latitude": 25.49326,
			"longitude": 55.7352
		},
		{
			"id": 606,
			"type": "CITY",
			"city": "Al Fujairah City",
			"name": "Al Fujairah City",
			"country": "United Arab Emirates",
			"countryCode": "AE",
			"region": "Fujairah",
			"regionCode": "FU",
			"latitude": 25.11641,
			"longitude": 56.34141
		},
		{
			"id": 583861,
			"type": "CITY",
			"city": "Khalifah A City",
			"name": "Khalifah A City",
			"country": "United Arab Emirates",
			"countryCode": "AE",
			"region": "Abu Dhabi Emirate",
			"regionCode": "AZ",
			"latitude": 24.42588,
			"longitude": 54.605
		},
		{
			"id": 583851,
			"type": "CITY",
			"city": "Reef Al Fujairah City",
			"name": "Reef Al Fujairah City",
			"country": "United Arab Emirates",
			"countryCode": "AE",
			"region": "Fujairah",
			"regionCode": "FU",
			"latitude": 25.14479,
			"longitude": 56.24764
		},
		{
			"id": 583841,
			"type": "CITY",
			"city": "Bani Yas City",
			"name": "Bani Yas City",
			"country": "United Arab Emirates",
			"countryCode": "AE",
			"region": "Abu Dhabi Emirate",
			"regionCode": "AZ",
			"latitude": 24.30978,
			"longitude": 54.62944
		},
		{
			"id": 466802,
			"type": "ADM2",
			"city": "Dibba Al Fujairah Municipality",
			"name": "Dibba Al Fujairah Municipality",
			"country": "United Arab Emirates",
			"countryCode": "AE",
			"region": "Fujairah",
			"regionCode": "FU",
			"latitude": 25.5858,
			"longitude": 56.24792
		},
		{
			"id": 583854,
			"type": "CITY",
			"city": "Zayed City",
			"name": "Zayed City",
			"country": "United Arab Emirates",
			"countryCode": "AE",
			"region": "Abu Dhabi Emirate",
			"regionCode": "AZ",
			"latitude": 23.65416,
			"longitude": 53.70522
		},
		{
			"id": 208,
			"type": "CITY",
			"city": "Umm Al Quwain City",
			"name": "Umm Al Quwain City",
			"country": "United Arab Emirates",
			"countryCode": "AE",
			"region": "Umm al-Quwain",
			"regionCode": "UQ",
			"latitude": 25.56473,
			"longitude": 55.55517
		},
		{
			"id": 583836,
			"type": "CITY",
			"city": "Al Shamkhah City",
			"name": "Al Shamkhah City",
			"country": "United Arab Emirates",
			"countryCode": "AE",
			"region": "Abu Dhabi Emirate",
			"regionCode": "AZ",
			"latitude": 24.39268,
			"longitude": 54.70779
		},
		{
			"id": 124,
			"wikiDataId": "Q764279",
			"type": "CITY",
			"city": "Khor Fakkan",
			"name": "Khor Fakkan",
			"country": "United Arab Emirates",
			"countryCode": "AE",
			"region": "Sharjah Emirate",
			"regionCode": "SH",
			"latitude": 25.339166666,
			"longitude": 56.356111111
		},
		{
			"id": 351,
			"wikiDataId": "Q3696182",
			"type": "CITY",
			"city": "Dibba Al-Fujairah",
			"name": "Dibba Al-Fujairah",
			"country": "United Arab Emirates",
			"countryCode": "AE",
			"region": "Fujairah",
			"regionCode": "FU",
			"latitude": 25.616667,
			"longitude": 56.266667
		},
		{
			"id": 757537,
			"type": "ADM2",
			"city": "Kalba",
			"name": "Kalba",
			"country": "United Arab Emirates",
			"countryCode": "AE",
			"region": "Sharjah Emirate",
			"regionCode": "SH",
			"latitude": 24.99816,
			"longitude": 56.27207
		},
		{
			"id": 571,
			"wikiDataId": "Q6742405",
			"type": "CITY",
			"city": "Dibba Al-Hisn",
			"name": "Dibba Al-Hisn",
			"country": "United Arab Emirates",
			"countryCode": "AE",
			"region": "Fujairah",
			"regionCode": "FU",
			"latitude": 25.608888888,
			"longitude": 56.275833333
		},
		{
			"id": 519,
			"wikiDataId": "Q3492826",
			"type": "CITY",
			"city": "Dhaid",
			"name": "Dhaid",
			"country": "United Arab Emirates",
			"countryCode": "AE",
			"region": "Sharjah Emirate",
			"regionCode": "SH",
			"latitude": 25.283333333,
			"longitude": 55.883333333
		},
		{
			"id": 413,
			"wikiDataId": "Q1023786",
			"type": "CITY",
			"city": "Ruwais",
			"name": "Ruwais",
			"country": "United Arab Emirates",
			"countryCode": "AE",
			"region": "Abu Dhabi Emirate",
			"regionCode": "AZ",
			"latitude": 24.11685491,
			"longitude": 52.73301956
		},
		{
			"id": 757534,
			"type": "ADM2",
			"city": "Dibba Al Hesn",
			"name": "Dibba Al Hesn",
			"country": "United Arab Emirates",
			"countryCode": "AE",
			"region": "Sharjah Emirate",
			"regionCode": "SH",
			"latitude": 25.61593,
			"longitude": 56.26899
		},
		{
			"id": 757531,
			"type": "ADM2",
			"city": "Al Madam",
			"name": "Al Madam",
			"country": "United Arab Emirates",
			"countryCode": "AE",
			"region": "Sharjah Emirate",
			"regionCode": "SH",
			"latitude": 24.95536,
			"longitude": 55.7682
		},
		{
			"id": 879,
			"wikiDataId": "Q21735810",
			"type": "CITY",
			"city": "Muzayri‘",
			"name": "Muzayri‘",
			"country": "United Arab Emirates",
			"countryCode": "AE",
			"region": "Abu Dhabi Emirate",
			"regionCode": "AZ",
			"latitude": 23.143611111,
			"longitude": 53.788055555
		},
		{
			"id": 757536,
			"type": "ADM2",
			"city": "Masfout",
			"name": "Masfout",
			"country": "United Arab Emirates",
			"countryCode": "AE",
			"region": "Ajman Emirate",
			"regionCode": "AJ",
			"latitude": 24.83982,
			"longitude": 56.05158
		},
		{
			"id": 757539,
			"type": "ADM2",
			"city": "Milehah",
			"name": "Milehah",
			"country": "United Arab Emirates",
			"countryCode": "AE",
			"region": "Sharjah Emirate",
			"regionCode": "SH",
			"latitude": 25.10097,
			"longitude": 55.91282
		},
		{
			"id": 757538,
			"type": "ADM2",
			"city": "Al Batayih",
			"name": "Al Batayih",
			"country": "United Arab Emirates",
			"countryCode": "AE",
			"region": "Sharjah Emirate",
			"regionCode": "SH",
			"latitude": 25.22317,
			"longitude": 55.74272
		},
		{
			"id": 300,
			"wikiDataId": "Q6401643",
			"type": "CITY",
			"city": "Murbah",
			"name": "Murbah",
			"country": "United Arab Emirates",
			"countryCode": "AE",
			"region": "Sharjah Emirate",
			"regionCode": "SH",
			"latitude": 25.280555555,
			"longitude": 56.364166666
		}
	]
}
