{
	"cities": [
		{
			"id": 26079,
			"wikiDataId": "Q85",
			"type": "CITY",
			"city": "Cairo",
			"name": "القاهرة",
			"country": "مصر",
			"countryCode": "EG",
			"region": "محافظة القاهرة",
			"regionCode": "C",
			"latitude": 30.056111111,
			"longitude": 31.239444444
		},
		{
			"id": 26543,
			"wikiDataId": "Q87",
			"type": "CITY",
			"city": "Alexandria",
			"name": "الإسكندرية",
			"country": "مصر",
			"countryCode": "EG",
			"region": "محافظة الإسكندرية",
			"regionCode": "ALX",
			"latitude": 31.2,
			"longitude": 29.916666666
		},
		{
			"id": 26400,
			"wikiDataId": "Q81788",
			"type": "CITY",
			"city": "Giza",
			"name": "الجيزة",
			"country": "مصر",
			"countryCode": "EG",
			"region": "محافظة الجيزة",
			"regionCode": "GZ",
			"latitude": 29.987,
			"longitude": 31.2118
		},
		{
			"id": 2978601,
			"wikiDataId": "Q269960",
			"type": "CITY",
			"city": "Shubra El-Kheima",
			"name": "شبرا الخيمة",
			"country": "مصر",
			"countryCode": "EG",
			"region": "محافظة القليوبية",
			"regionCode": "KB",
			"latitude": 30.128611111,
			"longitude": 31.242222222
		},
		{
			"id": 26576,
			"wikiDataId": "Q771345",
			"type": "CITY",
			"city": "Helwan",
			"name": "حلوان",
			"country": "مصر",
			"countryCode": "EG",
			"region": "محافظة القاهرة",
			"regionCode": "C",
			"latitude": 29.841944444,
			"longitude": 31.334166666
		},
		{
			"id": 3053182,
			"wikiDataId": "Q398152",
			"type": "CITY",
			"city": "Al-Matariyyah",
			"name": "المطرية",
			"country": "مصر",
			"countryCode": "EG",
			"region": "محافظة القاهرة",
			"regionCode": "C",
			"latitude": 30.1295,
			"longitude": 31.2889
		},
		{
			"id": 26154,
			"wikiDataId": "Q312723",
			"type": "CITY",
			"city": "El-Mahalla El-Kubra",
			"name": "المحلة الكبرى",
			"country": "مصر",
			"countryCode": "EG",
			"region": "محافظة الغربية",
			"regionCode": "GH",
			"latitude": 30.966666666,
			"longitude": 31.166666666
		},
		{
			"id": 26765,
			"wikiDataId": "Q134509",
			"type": "CITY",
			"city": "Port Said",
			"name": "بورسعيد",
			"country": "مصر",
			"countryCode": "EG",
			"region": "محافظة بورسعيد",
			"regionCode": "PTS",
			"latitude": 31.25,
			"longitude": 32.283333333
		},
		{
			"id": 26647,
			"wikiDataId": "Q134514",
			"type": "CITY",
			"city": "Suez",
			"name": "السويس",
			"country": "مصر",
			"countryCode": "EG",
			"region": "محافظة السويس",
			"regionCode": "SUZ",
			"latitude": 29.966666666,
			"longitude": 32.533333333
		},
		{
			"id": 26442,
			"wikiDataId": "Q223587",
			"type": "CITY",
			"city": "Mansoura",
			"name": "المنصورة",
			"country": "مصر",
			"countryCode": "EG",
			"region": "محافظة الدقهلية",
			"regionCode": "DK",
			"latitude": 31.03637,
			"longitude": 31.38069
		},
		{
			"id": 26884,
			"wikiDataId": "Q271771",
			"type": "CITY",
			"city": "Tanta",
			"name": "طنطا",
			"country": "مصر",
			"countryCode": "EG",
			"region": "محافظة الغربية",
			"regionCode": "GH",
			"latitude": 30.783333333,
			"longitude": 31
		},
		{
			"id": 144109,
			"wikiDataId": "Q23955511",
			"type": "ADM2",
			"city": "Markaz al Uqşur",
			"name": "مركز الاقصر",
			"country": "مصر",
			"countryCode": "EG",
			"region": "محافظة الأقصر",
			"regionCode": "LX",
			"latitude": 25.63,
			"longitude": 32.590277777
		},
		{
			"id": 26257,
			"wikiDataId": "Q29962",
			"type": "CITY",
			"city": "Asyut",
			"name": "أسيوط",
			"country": "مصر",
			"countryCode": "EG",
			"region": "محافظة أسيوط",
			"regionCode": "AST",
			"latitude": 27.186944444,
			"longitude": 31.171388888
		},
		{
			"id": 26607,
			"wikiDataId": "Q140304",
			"type": "CITY",
			"city": "Zagazig",
			"name": "الزقازيق",
			"country": "مصر",
			"countryCode": "EG",
			"region": "محافظة الشرقية",
			"regionCode": "SHR",
			"latitude": 30.566666666,
			"longitude": 31.5
		},
		{
			"id": 26362,
			"wikiDataId": "Q203299",
			"type": "CITY",
			"city": "Faiyum",
			"name": "الفيوم",
			"country": "مصر",
			"countryCode": "EG",
			"region": "محافظة الفيوم",
			"regionCode": "FYM",
			"latitude": 29.3,
			"longitude": 30.833333333
		},
		{
			"id": 26892,
			"wikiDataId": "Q217156",
			"type": "CITY",
			"city": "Ismailia",
			"name": "الإسماعيلية",
			"country": "مصر",
			"countryCode": "EG",
			"region": "محافظة الإسماعيلية",
			"regionCode": "IS",
			"latitude": 30.583333333,
			"longitude": 32.266666666
		},
		{
			"id": 25976,
			"wikiDataId": "Q29888",
			"type": "CITY",
			"city": "Aswan",
			"name": "أسوان",
			"country": "مصر",
			"countryCode": "EG",
			"region": "محافظة أسوان",
			"regionCode": "ASN",
			"latitude": 24.088919444,
			"longitude": 32.899730555
		},
		{
			"id": 26825,
			"wikiDataId": "Q31915573",
			"type": "CITY",
			"city": "Kafr ad Dawwār",
			"name": "كفر الدوار",
			"country": "مصر",
			"countryCode": "EG",
			"region": "محافظة البحيرة",
			"regionCode": "BH",
			"latitude": 31.133888888,
			"longitude": 30.129722222
		},
		{
			"id": 26183,
			"wikiDataId": "Q328153",
			"type": "CITY",
			"city": "Damanhur",
			"name": "دمنهور",
			"country": "مصر",
			"countryCode": "EG",
			"region": "محافظة البحيرة",
			"regionCode": "BH",
			"latitude": 31.05,
			"longitude": 30.466666666
		},
		{
			"id": 26127,
			"wikiDataId": "Q310117",
			"type": "CITY",
			"city": "Minya",
			"name": "المنيا",
			"country": "مصر",
			"countryCode": "EG",
			"region": "محافظة المنيا",
			"regionCode": "MN",
			"latitude": 28.083333333,
			"longitude": 30.75
		},
		{
			"id": 25954,
			"wikiDataId": "Q2988951",
			"type": "CITY",
			"city": "Idku",
			"name": "إدكو",
			"country": "مصر",
			"countryCode": "EG",
			"region": "محافظة البحيرة",
			"regionCode": "BH",
			"latitude": 31.305833333,
			"longitude": 30.295555555
		},
		{
			"id": 26092,
			"wikiDataId": "Q189383",
			"type": "CITY",
			"city": "Damietta",
			"name": "دمياط",
			"country": "مصر",
			"countryCode": "EG",
			"region": "محافظة دمياط",
			"regionCode": "DT",
			"latitude": 31.416666666,
			"longitude": 31.816666666
		},
		{
			"id": 26819,
			"wikiDataId": "Q130514",
			"type": "CITY",
			"city": "Luxor",
			"name": "الأقصر",
			"country": "مصر",
			"countryCode": "EG",
			"region": "محافظة الأقصر",
			"regionCode": "LX",
			"latitude": 25.696944444,
			"longitude": 32.642222222
		},
		{
			"id": 26879,
			"wikiDataId": "Q336661",
			"type": "CITY",
			"city": "Qena",
			"name": "قنا",
			"country": "مصر",
			"countryCode": "EG",
			"region": "محافظة قنا",
			"regionCode": "KN",
			"latitude": 26.166666666,
			"longitude": 32.716666666
		},
		{
			"id": 26310,
			"wikiDataId": "Q12191144",
			"type": "CITY",
			"city": "New Cairo",
			"name": "القاهرة الجديدة",
			"country": "مصر",
			"countryCode": "EG",
			"region": "محافظة القاهرة",
			"regionCode": "C",
			"latitude": 30.03,
			"longitude": 31.47
		},
		{
			"id": 26669,
			"wikiDataId": "Q388108",
			"type": "CITY",
			"city": "Sohag",
			"name": "سوهاج",
			"country": "مصر",
			"countryCode": "EG",
			"region": "محافظة سوهاج",
			"regionCode": "SHG",
			"latitude": 26.560555555,
			"longitude": 31.691666666
		},
		{
			"id": 25938,
			"wikiDataId": "Q394080",
			"type": "CITY",
			"city": "Beni Suef",
			"name": "بني سويف",
			"country": "مصر",
			"countryCode": "EG",
			"region": "محافظة بني سويف",
			"regionCode": "BNS",
			"latitude": 29.066666666,
			"longitude": 31.083333333
		},
		{
			"id": 26201,
			"wikiDataId": "Q31350",
			"type": "CITY",
			"city": "Shibin Al Kawm, Al Minufiyah",
			"name": "شبين الكوم المنوفية",
			"country": "مصر",
			"countryCode": "EG",
			"region": "محافظة المنوفية",
			"regionCode": "MNF",
			"latitude": 30.55,
			"longitude": 31
		},
		{
			"id": 26805,
			"wikiDataId": "Q238452",
			"type": "CITY",
			"city": "Arish",
			"name": "العريش",
			"country": "مصر",
			"countryCode": "EG",
			"region": "محافظة شمال سيناء",
			"regionCode": "SIN",
			"latitude": 31.133333333,
			"longitude": 33.8
		},
		{
			"id": 26312,
			"wikiDataId": "Q187284",
			"type": "CITY",
			"city": "Hurghada",
			"name": "الغردقة",
			"country": "مصر",
			"countryCode": "EG",
			"region": "محافظة البحر الأحمر",
			"regionCode": "BA",
			"latitude": 27.257777777,
			"longitude": 33.811666666
		},
		{
			"id": 26629,
			"wikiDataId": "Q952118",
			"type": "CITY",
			"city": "Talkha",
			"name": "طلخا",
			"country": "مصر",
			"countryCode": "EG",
			"region": "محافظة الدقهلية",
			"regionCode": "DK",
			"latitude": 31.059166666,
			"longitude": 31.376666666
		},
		{
			"id": 26064,
			"wikiDataId": "Q336966",
			"type": "CITY",
			"city": "Banha",
			"name": "بنها",
			"country": "مصر",
			"countryCode": "EG",
			"region": "محافظة القليوبية",
			"regionCode": "KB",
			"latitude": 30.462777777,
			"longitude": 31.179722222
		},
		{
			"id": 3022909,
			"wikiDataId": "Q328176",
			"type": "CITY",
			"city": "Kafr el-Sheikh",
			"name": "كفر الشيخ",
			"country": "مصر",
			"countryCode": "EG",
			"region": "محافظة كفر الشيخ",
			"regionCode": "KFS",
			"latitude": 31.1,
			"longitude": 30.95
		},
		{
			"id": 144096,
			"wikiDataId": "Q395863",
			"type": "CITY",
			"city": "Desouk",
			"name": "دسوق",
			"country": "مصر",
			"countryCode": "EG",
			"region": "محافظة كفر الشيخ",
			"regionCode": "KFS",
			"latitude": 31.1459,
			"longitude": 30.71609
		},
		{
			"id": 26197,
			"wikiDataId": "Q393495",
			"type": "CITY",
			"city": "Bilbeis",
			"name": "بلبيس",
			"country": "مصر",
			"countryCode": "EG",
			"region": "محافظة الشرقية",
			"regionCode": "SHR",
			"latitude": 30.416666666,
			"longitude": 31.566666666
		},
		{
			"id": 26677,
			"wikiDataId": "Q393498",
			"type": "CITY",
			"city": "Mallawi",
			"name": "ملوي",
			"country": "مصر",
			"countryCode": "EG",
			"region": "محافظة المنيا",
			"regionCode": "MN",
			"latitude": 27.730555555,
			"longitude": 30.8425
		},
		{
			"id": 25956,
			"wikiDataId": "Q23952236",
			"type": "CITY",
			"city": "Dikirnis",
			"name": "دكرنس",
			"country": "مصر",
			"countryCode": "EG",
			"region": "محافظة الدقهلية",
			"regionCode": "DK",
			"latitude": 31.088888888,
			"longitude": 31.594722222
		},
		{
			"id": 26375,
			"wikiDataId": "Q239107",
			"type": "CITY",
			"city": "Edfu",
			"name": "إدفو",
			"country": "مصر",
			"countryCode": "EG",
			"region": "محافظة أسوان",
			"regionCode": "ASN",
			"latitude": 24.978055555,
			"longitude": 32.878888888
		},
		{
			"id": 25998,
			"wikiDataId": "Q31915265",
			"type": "CITY",
			"city": "Jirjā",
			"name": "جرجا",
			"country": "مصر",
			"countryCode": "EG",
			"region": "محافظة سوهاج",
			"regionCode": "SHG",
			"latitude": 26.338333333,
			"longitude": 31.891666666
		},
		{
			"id": 2987060,
			"wikiDataId": "Q337123",
			"type": "CITY",
			"city": "Mit Ghamr",
			"name": "ميت غمر",
			"country": "مصر",
			"countryCode": "EG",
			"region": "محافظة الدقهلية",
			"regionCode": "DK",
			"latitude": 30.719166666,
			"longitude": 31.262777777
		},
		{
			"id": 26756,
			"wikiDataId": "Q951268",
			"type": "CITY",
			"city": "Menouf",
			"name": "منوف",
			"country": "مصر",
			"countryCode": "EG",
			"region": "محافظة المنوفية",
			"regionCode": "MNF",
			"latitude": 30.466666666,
			"longitude": 30.933333333
		},
		{
			"id": 26654,
			"wikiDataId": "Q23955406",
			"type": "CITY",
			"city": "Al Ḩawāmidīyah",
			"name": "الحوامدية",
			"country": "مصر",
			"countryCode": "EG",
			"region": "محافظة الجيزة",
			"regionCode": "GZ",
			"latitude": 29.9,
			"longitude": 31.25
		},
		{
			"id": 3057754,
			"wikiDataId": "Q12242935",
			"type": "CITY",
			"city": "Musturud",
			"name": "موسترود",
			"country": "مصر",
			"countryCode": "EG",
			"region": "محافظة القاهرة",
			"regionCode": "C",
			"latitude": 30.138819444,
			"longitude": 31.292411111
		},
		{
			"id": 26314,
			"wikiDataId": "Q950839",
			"type": "CITY",
			"city": "Belqas",
			"name": "بلقاس",
			"country": "مصر",
			"countryCode": "EG",
			"region": "محافظة الدقهلية",
			"regionCode": "DK",
			"latitude": 31.233333333,
			"longitude": 31.366666666
		},
		{
			"id": 144076,
			"type": "ADM2",
			"city": "Markaz Jirjā",
			"name": "مركز جرجا",
			"country": "مصر",
			"countryCode": "EG",
			"region": "محافظة سوهاج",
			"regionCode": "SHG",
			"latitude": 26.30683,
			"longitude": 31.84574
		},
		{
			"id": 26675,
			"wikiDataId": "Q23951808",
			"type": "CITY",
			"city": "Disūq",
			"name": "دسوق",
			"country": "مصر",
			"countryCode": "EG",
			"region": "محافظة كفر الشيخ",
			"regionCode": "KFS",
			"latitude": 31.1325,
			"longitude": 30.647777777
		},
		{
			"id": 26865,
			"wikiDataId": "Q335716",
			"type": "CITY",
			"city": "Abu Kabir",
			"name": "ابو كبير",
			"country": "مصر",
			"countryCode": "EG",
			"region": "محافظة الشرقية",
			"regionCode": "SHR",
			"latitude": 30.71666667,
			"longitude": 31.66666667
		},
		{
			"id": 26773,
			"wikiDataId": "Q336724",
			"type": "CITY",
			"city": "Qalyub",
			"name": "قليوب",
			"country": "مصر",
			"countryCode": "EG",
			"region": "محافظة القليوبية",
			"regionCode": "KB",
			"latitude": 30.199722222,
			"longitude": 31.205277777
		},
		{
			"id": 26611,
			"wikiDataId": "Q31865526",
			"type": "CITY",
			"city": "Akhmīm",
			"name": "أخميم",
			"country": "مصر",
			"countryCode": "EG",
			"region": "محافظة سوهاج",
			"regionCode": "SHG",
			"latitude": 26.5622,
			"longitude": 31.74566
		},
		{
			"id": 26567,
			"wikiDataId": "Q23955475",
			"type": "CITY",
			"city": "Al Maţarīyah",
			"name": "المعرية",
			"country": "مصر",
			"countryCode": "EG",
			"region": "محافظة الدقهلية",
			"regionCode": "DK",
			"latitude": 31.182777777,
			"longitude": 32.031111111
		},
		{
			"id": 3070610,
			"wikiDataId": "Q589934",
			"type": "ADM2",
			"city": "Maadi",
			"name": "المعادى",
			"country": "مصر",
			"countryCode": "EG",
			"region": "محافظة القاهرة",
			"regionCode": "C",
			"latitude": 29.9667,
			"longitude": 31.25
		},
		{
			"id": 26452,
			"wikiDataId": "Q2392142",
			"type": "CITY",
			"city": "Zefta",
			"name": "زفتى",
			"country": "مصر",
			"countryCode": "EG",
			"region": "محافظة الغربية",
			"regionCode": "GH",
			"latitude": 30.711944444,
			"longitude": 31.239444444
		},
		{
			"id": 26164,
			"wikiDataId": "Q951369",
			"type": "CITY",
			"city": "Tahta",
			"name": "طهطا",
			"country": "مصر",
			"countryCode": "EG",
			"region": "محافظة سوهاج",
			"regionCode": "SHG",
			"latitude": 26.770277777,
			"longitude": 31.502777777
		},
		{
			"id": 26493,
			"wikiDataId": "Q31937021",
			"type": "CITY",
			"city": "Samālūţ",
			"name": "سماالي",
			"country": "مصر",
			"countryCode": "EG",
			"region": "محافظة المنيا",
			"regionCode": "MN",
			"latitude": 28.312222222,
			"longitude": 30.71
		},
		{
			"id": 26009,
			"wikiDataId": "Q63233",
			"type": "CITY",
			"city": "Nasser",
			"name": "ناصر",
			"country": "مصر",
			"countryCode": "EG",
			"region": "محافظة بني سويف",
			"regionCode": "BNS",
			"latitude": 29.1475,
			"longitude": 31.130555555
		},
		{
			"id": 26446,
			"wikiDataId": "Q23950194",
			"type": "CITY",
			"city": "Ḩawsh ‘Īsá",
			"name": "حوش عيسى",
			"country": "مصر",
			"countryCode": "EG",
			"region": "محافظة البحيرة",
			"regionCode": "BH",
			"latitude": 30.912777777,
			"longitude": 30.290277777
		},
		{
			"id": 26298,
			"wikiDataId": "Q556095",
			"type": "CITY",
			"city": "Manfalut",
			"name": "منفلوط",
			"country": "مصر",
			"countryCode": "EG",
			"region": "محافظة أسيوط",
			"regionCode": "AST",
			"latitude": 27.312777777,
			"longitude": 30.970277777
		},
		{
			"id": 26533,
			"wikiDataId": "Q951186",
			"type": "CITY",
			"city": "Ashmoun",
			"name": "أشمون",
			"country": "مصر",
			"countryCode": "EG",
			"region": "محافظة المنوفية",
			"regionCode": "MNF",
			"latitude": 30.3,
			"longitude": 30.983333333
		},
		{
			"id": 3052391,
			"wikiDataId": "Q679056",
			"type": "CITY",
			"city": "Hermonthis",
			"name": "حرمونثيس",
			"country": "مصر",
			"countryCode": "EG",
			"region": "محافظة قنا",
			"regionCode": "KN",
			"latitude": 25.6167,
			"longitude": 32.5333
		},
		{
			"id": 3070294,
			"wikiDataId": "Q1827283",
			"type": "CITY",
			"city": "Maghagha",
			"name": "مغاغة",
			"country": "مصر",
			"countryCode": "EG",
			"region": "محافظة المنيا",
			"regionCode": "MN",
			"latitude": 28.648333333,
			"longitude": 30.842222222
		},
		{
			"id": 26764,
			"wikiDataId": "Q951867",
			"type": "CITY",
			"city": "Kafr az Zayyāt",
			"name": "كفر الزيات",
			"country": "مصر",
			"countryCode": "EG",
			"region": "محافظة الغربية",
			"regionCode": "GH",
			"latitude": 30.819722222,
			"longitude": 30.824166666
		},
		{
			"id": 25970,
			"wikiDataId": "Q644",
			"type": "CITY",
			"city": "Sharm el-Sheikh",
			"name": "شرم الشيخ",
			"country": "مصر",
			"countryCode": "EG",
			"region": "محافظة جنوب سيناء",
			"regionCode": "JS",
			"latitude": 27.978611111,
			"longitude": 34.393611111
		},
		{
			"id": 26887,
			"wikiDataId": "Q138833",
			"type": "CITY",
			"city": "Kom Ombo",
			"name": "كوم امبو",
			"country": "مصر",
			"countryCode": "EG",
			"region": "محافظة أسوان",
			"regionCode": "ASN",
			"latitude": 24.466666666,
			"longitude": 32.95
		},
		{
			"id": 26697,
			"wikiDataId": "Q31864504",
			"type": "CITY",
			"city": "Abū Tīj",
			"name": "أبو توج",
			"country": "مصر",
			"countryCode": "EG",
			"region": "محافظة أسيوط",
			"regionCode": "AST",
			"latitude": 27.044166666,
			"longitude": 31.318888888
		},
		{
			"id": 26457,
			"wikiDataId": "Q310844",
			"type": "CITY",
			"city": "Cusae",
			"name": "كوزي",
			"country": "مصر",
			"countryCode": "EG",
			"region": "محافظة أسيوط",
			"regionCode": "AST",
			"latitude": 27.440277777,
			"longitude": 30.818333333
		},
		{
			"id": 26371,
			"wikiDataId": "Q243699",
			"type": "CITY",
			"city": "Rosetta",
			"name": "رشيد",
			"country": "مصر",
			"countryCode": "EG",
			"region": "محافظة البحيرة",
			"regionCode": "BH",
			"latitude": 31.401388888,
			"longitude": 30.419444444
		},
		{
			"id": 26399,
			"wikiDataId": "Q975904",
			"type": "CITY",
			"city": "Abnub",
			"name": "أبنوب",
			"country": "مصر",
			"countryCode": "EG",
			"region": "محافظة أسيوط",
			"regionCode": "AST",
			"latitude": 27.26666667,
			"longitude": 31.15
		},
		{
			"id": 26155,
			"wikiDataId": "Q626031",
			"type": "CITY",
			"city": "Esna",
			"name": "اسنا",
			"country": "مصر",
			"countryCode": "EG",
			"region": "محافظة قنا",
			"regionCode": "KN",
			"latitude": 25.293333,
			"longitude": 32.556389
		},
		{
			"id": 26693,
			"wikiDataId": "Q12185626",
			"type": "CITY",
			"city": "Al Jamālīyah",
			"name": "الجمالية",
			"country": "مصر",
			"countryCode": "EG",
			"region": "محافظة الدقهلية",
			"regionCode": "DK",
			"latitude": 31.180833333,
			"longitude": 31.865277777
		},
		{
			"id": 26139,
			"wikiDataId": "Q393829",
			"type": "CITY",
			"city": "Mersa Matruh",
			"name": "مرسى مطروح",
			"country": "مصر",
			"countryCode": "EG",
			"region": "محافظة مطروح",
			"regionCode": "MT",
			"latitude": 31.333333333,
			"longitude": 27.233333333
		},
		{
			"id": 26035,
			"wikiDataId": "Q951804",
			"type": "CITY",
			"city": "Dairut",
			"name": "ديروط",
			"country": "مصر",
			"countryCode": "EG",
			"region": "محافظة أسيوط",
			"regionCode": "AST",
			"latitude": 27.566666666,
			"longitude": 30.816666666
		},
		{
			"id": 26550,
			"wikiDataId": "Q23934694",
			"type": "CITY",
			"city": "Toukh",
			"name": "طوخ",
			"country": "مصر",
			"countryCode": "EG",
			"region": "محافظة القليوبية",
			"regionCode": "KB",
			"latitude": 30.35487,
			"longitude": 31.20105
		},
		{
			"id": 26415,
			"wikiDataId": "Q3494688",
			"type": "CITY",
			"city": "Manzala",
			"name": "المنزلة",
			"country": "مصر",
			"countryCode": "EG",
			"region": "محافظة الدقهلية",
			"regionCode": "DK",
			"latitude": 31.158055555,
			"longitude": 31.936944444
		},
		{
			"id": 26301,
			"wikiDataId": "Q4165655",
			"type": "CITY",
			"city": "Hihya",
			"name": "هيهيا",
			"country": "مصر",
			"countryCode": "EG",
			"region": "محافظة الشرقية",
			"regionCode": "SHR",
			"latitude": 30.668702,
			"longitude": 31.5904
		},
		{
			"id": 3001568,
			"wikiDataId": "Q1302772",
			"type": "CITY",
			"city": "Ptolemais Hermiou",
			"name": "بطليموس هيرميو",
			"country": "مصر",
			"countryCode": "EG",
			"region": "محافظة سوهاج",
			"regionCode": "SHG",
			"latitude": 26.476944444,
			"longitude": 31.803611111
		},
		{
			"id": 26412,
			"wikiDataId": "Q10423667",
			"type": "CITY",
			"city": "Awsīm",
			"name": "أوسوم",
			"country": "مصر",
			"countryCode": "EG",
			"region": "محافظة الجيزة",
			"regionCode": "GZ",
			"latitude": 30.123055555,
			"longitude": 31.135833333
		},
		{
			"id": 26536,
			"wikiDataId": "Q23951368",
			"type": "CITY",
			"city": "Fuwah",
			"name": "فوة",
			"country": "مصر",
			"countryCode": "EG",
			"region": "محافظة كفر الشيخ",
			"regionCode": "KFS",
			"latitude": 31.203611111,
			"longitude": 30.549166666
		},
		{
			"id": 26754,
			"wikiDataId": "Q951439",
			"type": "CITY",
			"city": "Faqous",
			"name": "فاقوس",
			"country": "مصر",
			"countryCode": "EG",
			"region": "محافظة الشرقية",
			"regionCode": "SHR",
			"latitude": 30.733333333,
			"longitude": 31.8
		},
		{
			"id": 26353,
			"wikiDataId": "Q23955433",
			"type": "CITY",
			"city": "Al Khānkah",
			"name": "الخانكة",
			"country": "مصر",
			"countryCode": "EG",
			"region": "محافظة القليوبية",
			"regionCode": "KB",
			"latitude": 30.210277777,
			"longitude": 31.368055555
		},
		{
			"id": 26283,
			"wikiDataId": "Q23955498",
			"type": "CITY",
			"city": "Al Qurayn",
			"name": "القرين",
			"country": "مصر",
			"countryCode": "EG",
			"region": "محافظة الشرقية",
			"regionCode": "SHR",
			"latitude": 30.616111111,
			"longitude": 31.735
		},
		{
			"id": 26823,
			"wikiDataId": "Q953625",
			"type": "CITY",
			"city": "Al Fashn",
			"name": "الفشن",
			"country": "مصر",
			"countryCode": "EG",
			"region": "محافظة بني سويف",
			"regionCode": "BNS",
			"latitude": 28.822222222,
			"longitude": 30.898333333
		},
		{
			"id": 26142,
			"wikiDataId": "Q28445605",
			"type": "CITY",
			"city": "Abū Qurqāş",
			"name": "ابو قرقاص",
			"country": "مصر",
			"countryCode": "EG",
			"region": "محافظة المنيا",
			"regionCode": "MN",
			"latitude": 27.931111111,
			"longitude": 30.838333333
		},
		{
			"id": 26595,
			"wikiDataId": "Q23955470",
			"type": "CITY",
			"city": "Al Manshāh",
			"name": "المنشاه",
			"country": "مصر",
			"countryCode": "EG",
			"region": "محافظة سوهاج",
			"regionCode": "SHG",
			"latitude": 26.476944444,
			"longitude": 31.803611111
		},
		{
			"id": 25944,
			"wikiDataId": "Q4063326",
			"type": "CITY",
			"city": "el-Kharga Town",
			"name": "مدينة الخارجة",
			"country": "مصر",
			"countryCode": "EG",
			"region": "محافظة الوادي الجديد",
			"regionCode": "WAD",
			"latitude": 25.450561111,
			"longitude": 30.54525
		},
		{
			"id": 26633,
			"wikiDataId": "Q1816589",
			"type": "CITY",
			"city": "Qus",
			"name": "قوص",
			"country": "مصر",
			"countryCode": "EG",
			"region": "محافظة قنا",
			"regionCode": "KN",
			"latitude": 25.916666666,
			"longitude": 32.75
		},
		{
			"id": 25968,
			"wikiDataId": "Q26991370",
			"type": "CITY",
			"city": "Banī Mazār",
			"name": "بني مزار",
			"country": "مصر",
			"countryCode": "EG",
			"region": "محافظة المنيا",
			"regionCode": "MN",
			"latitude": 28.503611111,
			"longitude": 30.800277777
		},
		{
			"id": 3009628,
			"wikiDataId": "Q4902946",
			"type": "CITY",
			"city": "Biba, Egypt",
			"name": "ببا ، مصر",
			"country": "مصر",
			"countryCode": "EG",
			"region": "محافظة بني سويف",
			"regionCode": "BNS",
			"latitude": 28.9218,
			"longitude": 30.9844
		},
		{
			"id": 26289,
			"wikiDataId": "Q1243772",
			"type": "CITY",
			"city": "Samannud",
			"name": "سمنود",
			"country": "مصر",
			"countryCode": "EG",
			"region": "محافظة الغربية",
			"regionCode": "GH",
			"latitude": 30.96666667,
			"longitude": 31.25
		},
		{
			"id": 26428,
			"wikiDataId": "Q950786",
			"type": "CITY",
			"city": "Minyat an Naşr",
			"name": "منية النصر",
			"country": "مصر",
			"countryCode": "EG",
			"region": "محافظة الدقهلية",
			"regionCode": "DK",
			"latitude": 31.123888888,
			"longitude": 31.645833333
		},
		{
			"id": 26622,
			"type": "CITY",
			"city": "Shibīn al Qanāṭir",
			"name": "شبين القناطر",
			"country": "مصر",
			"countryCode": "EG",
			"region": "محافظة القليوبية",
			"regionCode": "KB",
			"latitude": 30.31269,
			"longitude": 31.32018
		},
		{
			"id": 26631,
			"wikiDataId": "Q23955489",
			"type": "CITY",
			"city": "Al Qanāţir al Khayrīyah",
			"name": "القناطر الخيرية",
			"country": "مصر",
			"countryCode": "EG",
			"region": "محافظة القليوبية",
			"regionCode": "KB",
			"latitude": 30.193333333,
			"longitude": 31.136944444
		},
		{
			"id": 26508,
			"wikiDataId": "Q1072210",
			"type": "CITY",
			"city": "Basyoun",
			"name": "بسيون",
			"country": "مصر",
			"countryCode": "EG",
			"region": "محافظة الغربية",
			"regionCode": "GH",
			"latitude": 30.936388888,
			"longitude": 30.811111111
		},
		{
			"id": 26519,
			"wikiDataId": "Q1524502",
			"type": "CITY",
			"city": "Sherbin",
			"name": "شربين",
			"country": "مصر",
			"countryCode": "EG",
			"region": "محافظة الدقهلية",
			"regionCode": "DK",
			"latitude": 31.19222222,
			"longitude": 31.52388889
		},
		{
			"id": 26733,
			"wikiDataId": "Q23951929",
			"type": "CITY",
			"city": "Dishnā",
			"name": "دشنا",
			"country": "مصر",
			"countryCode": "EG",
			"region": "محافظة قنا",
			"regionCode": "KN",
			"latitude": 26.124722222,
			"longitude": 32.476111111
		},
		{
			"id": 26184,
			"wikiDataId": "Q23951614",
			"type": "CITY",
			"city": "Farshūţ",
			"name": "فرشو",
			"country": "مصر",
			"countryCode": "EG",
			"region": "محافظة قنا",
			"regionCode": "KN",
			"latitude": 26.055,
			"longitude": 32.163333333
		},
		{
			"id": 3096438,
			"wikiDataId": "Q29019",
			"type": "CITY",
			"city": "Dendera",
			"name": "دندرة",
			"country": "مصر",
			"countryCode": "EG",
			"region": "محافظة قنا",
			"regionCode": "KN",
			"latitude": 26.142194,
			"longitude": 32.669722
		},
		{
			"id": 26287,
			"wikiDataId": "Q23951814",
			"type": "CITY",
			"city": "Diyarb Najm",
			"name": "ديارب نجم",
			"country": "مصر",
			"countryCode": "EG",
			"region": "محافظة الشرقية",
			"regionCode": "SHR",
			"latitude": 30.754444444,
			"longitude": 31.440277777
		},
		{
			"id": 26830,
			"wikiDataId": "Q23954944",
			"type": "CITY",
			"city": "At Tall al Kabīr",
			"name": "التل الكبير",
			"country": "مصر",
			"countryCode": "EG",
			"region": "محافظة الشرقية",
			"regionCode": "SHR",
			"latitude": 30.54323,
			"longitude": 31.78504
		},
		{
			"id": 26642,
			"wikiDataId": "Q7678737",
			"type": "CITY",
			"city": "Tala",
			"name": "تالا",
			"country": "مصر",
			"countryCode": "EG",
			"region": "محافظة المنوفية",
			"regionCode": "MNF",
			"latitude": 30.6801,
			"longitude": 30.9438
		},
		{
			"id": 26466,
			"wikiDataId": "Q23949980",
			"type": "CITY",
			"city": "Ibshawāy",
			"name": "إبشاوي",
			"country": "مصر",
			"countryCode": "EG",
			"region": "محافظة الفيوم",
			"regionCode": "FYM",
			"latitude": 29.358055555,
			"longitude": 30.681388888
		},
		{
			"id": 25966,
			"wikiDataId": "Q7504702",
			"type": "CITY",
			"city": "Shuhada",
			"name": "الشهداء",
			"country": "مصر",
			"countryCode": "EG",
			"region": "محافظة المنوفية",
			"regionCode": "MNF",
			"latitude": 31.08965,
			"longitude": 30.749
		},
		{
			"id": 26251,
			"wikiDataId": "Q23936898",
			"type": "CITY",
			"city": "Sīdī Sālim",
			"name": "سيدي سالم",
			"country": "مصر",
			"countryCode": "EG",
			"region": "محافظة كفر الشيخ",
			"regionCode": "KFS",
			"latitude": 31.271388888,
			"longitude": 30.786111111
		},
		{
			"id": 26883,
			"wikiDataId": "Q23949850",
			"type": "CITY",
			"city": "Juhaynah",
			"name": "جهينة",
			"country": "مصر",
			"countryCode": "EG",
			"region": "محافظة سوهاج",
			"regionCode": "SHG",
			"latitude": 26.673055555,
			"longitude": 31.4975
		},
		{
			"id": 26797,
			"wikiDataId": "Q2210877",
			"type": "CITY",
			"city": "El-Balyana",
			"name": "البليانة",
			"country": "مصر",
			"countryCode": "EG",
			"region": "محافظة سوهاج",
			"regionCode": "SHG",
			"latitude": 26.232927777,
			"longitude": 31.999261111
		},
		{
			"id": 26812,
			"wikiDataId": "Q23935385",
			"type": "CITY",
			"city": "Ţāmiyah",
			"name": "عامية",
			"country": "مصر",
			"countryCode": "EG",
			"region": "محافظة الفيوم",
			"regionCode": "FYM",
			"latitude": 29.476388888,
			"longitude": 30.961111111
		},
		{
			"id": 26121,
			"wikiDataId": "Q23955404",
			"type": "CITY",
			"city": "Al Ḩāmūl",
			"name": "آل عمر",
			"country": "مصر",
			"countryCode": "EG",
			"region": "محافظة كفر الشيخ",
			"regionCode": "KFS",
			"latitude": 31.311388888,
			"longitude": 31.147777777
		},
		{
			"id": 26768,
			"wikiDataId": "Q23947505",
			"type": "CITY",
			"city": "Mashtūl as Sūq",
			"name": "مشتعل كالسق",
			"country": "مصر",
			"countryCode": "EG",
			"region": "محافظة الشرقية",
			"regionCode": "SHR",
			"latitude": 30.360555555,
			"longitude": 31.3775
		},
		{
			"id": 26427,
			"type": "CITY",
			"city": "Ain Sukhna",
			"name": "العين السخنة",
			"country": "مصر",
			"countryCode": "EG",
			"region": "محافظة السويس",
			"regionCode": "SUZ",
			"latitude": 29.60018,
			"longitude": 32.31671
		},
		{
			"id": 26895,
			"wikiDataId": "Q23950077",
			"type": "CITY",
			"city": "Iţsā",
			"name": "انه",
			"country": "مصر",
			"countryCode": "EG",
			"region": "محافظة الفيوم",
			"regionCode": "FYM",
			"latitude": 29.2375,
			"longitude": 30.789444444
		},
		{
			"id": 26001,
			"wikiDataId": "Q26709194",
			"type": "CITY",
			"city": "Maţāy",
			"name": "معايا",
			"country": "مصر",
			"countryCode": "EG",
			"region": "محافظة المنيا",
			"regionCode": "MN",
			"latitude": 28.418888888,
			"longitude": 30.779166666
		},
		{
			"id": 26525,
			"wikiDataId": "Q270754",
			"type": "CITY",
			"city": "Nag Hammadi",
			"name": "نجع حمادي",
			"country": "مصر",
			"countryCode": "EG",
			"region": "محافظة قنا",
			"regionCode": "KN",
			"latitude": 26.05,
			"longitude": 32.25
		},
		{
			"id": 26300,
			"type": "CITY",
			"city": "Al Badārī",
			"name": "البداري",
			"country": "مصر",
			"countryCode": "EG",
			"region": "محافظة أسيوط",
			"regionCode": "AST",
			"latitude": 26.99306,
			"longitude": 31.41605
		},
		{
			"id": 3052933,
			"wikiDataId": "Q210598",
			"type": "CITY",
			"city": "Tanis",
			"name": "تانيس",
			"country": "مصر",
			"countryCode": "EG",
			"region": "محافظة الشرقية",
			"regionCode": "SHR",
			"latitude": 30.97478,
			"longitude": 31.87231
		},
		{
			"id": 26223,
			"wikiDataId": "Q23955490",
			"type": "CITY",
			"city": "Al Qanāyāt",
			"name": "القنايات",
			"country": "مصر",
			"countryCode": "EG",
			"region": "محافظة الشرقية",
			"regionCode": "SHR",
			"latitude": 30.618888888,
			"longitude": 31.461111111
		},
		{
			"id": 26578,
			"wikiDataId": "Q7273033",
			"type": "CITY",
			"city": "Quweisna",
			"name": "قويسنا",
			"country": "مصر",
			"countryCode": "EG",
			"region": "محافظة المنوفية",
			"regionCode": "MNF",
			"latitude": 30.564183,
			"longitude": 31.157219
		},
		{
			"id": 3040038,
			"wikiDataId": "Q249480",
			"type": "CITY",
			"city": "Herakleopolis Magna",
			"name": "هيراكليوبوليس ماجنا",
			"country": "مصر",
			"countryCode": "EG",
			"region": "محافظة بني سويف",
			"regionCode": "BNS",
			"latitude": 29.085556,
			"longitude": 30.934444
		},
		{
			"id": 3093152,
			"wikiDataId": "Q6000830",
			"type": "CITY",
			"city": "Daraw",
			"name": "دراو",
			"country": "مصر",
			"countryCode": "EG",
			"region": "محافظة أسوان",
			"regionCode": "ASN",
			"latitude": 24.400277777,
			"longitude": 32.930555555
		},
		{
			"id": 3080873,
			"wikiDataId": "Q3645531",
			"type": "CITY",
			"city": "El-Maragha",
			"name": "المراغة",
			"country": "مصر",
			"countryCode": "EG",
			"region": "محافظة سوهاج",
			"regionCode": "SHG",
			"latitude": 26.7,
			"longitude": 31.6
		},
		{
			"id": 26026,
			"wikiDataId": "Q23955229",
			"type": "CITY",
			"city": "Aş Şaff",
			"name": "آش صف",
			"country": "مصر",
			"countryCode": "EG",
			"region": "محافظة الجيزة",
			"regionCode": "GZ",
			"latitude": 29.564722222,
			"longitude": 31.281111111
		},
		{
			"id": 3063306,
			"wikiDataId": "Q139773",
			"type": "CITY",
			"city": "Abu Qir",
			"name": "ابو قير",
			"country": "مصر",
			"countryCode": "EG",
			"region": "محافظة الإسكندرية",
			"regionCode": "ALX",
			"latitude": 31.316666666,
			"longitude": 30.066666666
		},
		{
			"id": 26383,
			"type": "CITY",
			"city": "Madīnat Sittah Uktūbar",
			"name": "مدينة ستّة أكتوبار",
			"country": "مصر",
			"countryCode": "EG",
			"region": "محافظة الجيزة",
			"regionCode": "GZ",
			"latitude": 29.81667,
			"longitude": 31.05
		},
		{
			"id": 26080,
			"wikiDataId": "Q23956861",
			"type": "CITY",
			"city": "Abū al Maţāmīr",
			"name": "أبو المعمور",
			"country": "مصر",
			"countryCode": "EG",
			"region": "محافظة البحيرة",
			"regionCode": "BH",
			"latitude": 30.910277777,
			"longitude": 30.174444444
		},
		{
			"id": 26506,
			"wikiDataId": "Q3652748",
			"type": "CITY",
			"city": "Deir Mawas",
			"name": "دير مواس",
			"country": "مصر",
			"countryCode": "EG",
			"region": "محافظة المنيا",
			"regionCode": "MN",
			"latitude": 27.641388888,
			"longitude": 30.849438888
		},
		{
			"id": 26911,
			"wikiDataId": "Q23955761",
			"type": "CITY",
			"city": "Ad Dilinjāt",
			"name": "Ad Dilinjāt",
			"country": "مصر",
			"countryCode": "EG",
			"region": "محافظة البحيرة",
			"regionCode": "BH",
			"latitude": 30.827777777,
			"longitude": 30.536388888
		},
		{
			"id": 26275,
			"wikiDataId": "Q4119153",
			"type": "CITY",
			"city": "El Zarqa",
			"name": "الزرقاء",
			"country": "مصر",
			"countryCode": "EG",
			"region": "محافظة دمياط",
			"regionCode": "DT",
			"latitude": 31.2082,
			"longitude": 31.635
		},
		{
			"id": 26483,
			"wikiDataId": "Q1010823",
			"type": "CITY",
			"city": "Ezbet El Borg",
			"name": "عزبة البرج",
			"country": "مصر",
			"countryCode": "EG",
			"region": "محافظة الدقهلية",
			"regionCode": "DK",
			"latitude": 31.503055555,
			"longitude": 31.841111111
		},
		{
			"id": 26113,
			"wikiDataId": "Q4105094",
			"type": "CITY",
			"city": "al-Wasta",
			"name": "الواسطى",
			"country": "مصر",
			"countryCode": "EG",
			"region": "محافظة الفيوم",
			"regionCode": "FYM",
			"latitude": 29.337222222,
			"longitude": 31.203611111
		},
		{
			"id": 26719,
			"wikiDataId": "Q23935303",
			"type": "CITY",
			"city": "Sumusţā as Sulţānī",
			"name": "Sumus asā as Sulţān",
			"country": "مصر",
			"countryCode": "EG",
			"region": "محافظة بني سويف",
			"regionCode": "BNS",
			"latitude": 28.916666666,
			"longitude": 30.85
		},
		{
			"id": 26247,
			"wikiDataId": "Q4166604",
			"type": "CITY",
			"city": "Faraskur",
			"name": "فارسكور",
			"country": "مصر",
			"countryCode": "EG",
			"region": "محافظة دمياط",
			"regionCode": "DT",
			"latitude": 31.3289,
			"longitude": 31.7132
		},
		{
			"id": 26627,
			"wikiDataId": "Q23949640",
			"type": "CITY",
			"city": "Kawm Ḩamādah",
			"name": "كوم حمادة",
			"country": "مصر",
			"countryCode": "EG",
			"region": "محافظة البحيرة",
			"regionCode": "BH",
			"latitude": 30.760833333,
			"longitude": 30.697222222
		},
		{
			"id": 26418,
			"wikiDataId": "Q4164479",
			"type": "CITY",
			"city": "El-bagour",
			"name": "الباجور",
			"country": "مصر",
			"countryCode": "EG",
			"region": "محافظة المنوفية",
			"regionCode": "MNF",
			"latitude": 30.433282,
			"longitude": 31.056862
		},
		{
			"id": 26325,
			"wikiDataId": "Q23955572",
			"type": "CITY",
			"city": "Al ‘Ayyāţ",
			"name": "العياط",
			"country": "مصر",
			"countryCode": "EG",
			"region": "محافظة الجيزة",
			"regionCode": "GZ",
			"latitude": 29.619722222,
			"longitude": 31.2575
		},
		{
			"id": 26640,
			"wikiDataId": "Q10961074",
			"type": "CITY",
			"city": "Aga",
			"name": "آغا",
			"country": "مصر",
			"countryCode": "EG",
			"region": "محافظة الدقهلية",
			"regionCode": "DK",
			"latitude": 30.94162,
			"longitude": 31.29039
		},
		{
			"id": 26274,
			"wikiDataId": "Q23955418",
			"type": "CITY",
			"city": "Al Ibrāhīmīyah",
			"name": "الإبراهيمية",
			"country": "مصر",
			"countryCode": "EG",
			"region": "محافظة الشرقية",
			"regionCode": "SHR",
			"latitude": 30.718888888,
			"longitude": 31.563055555
		},
		{
			"id": 26012,
			"wikiDataId": "Q1404020",
			"type": "CITY",
			"city": "Ras Gharib",
			"name": "رأس غريب",
			"country": "مصر",
			"countryCode": "EG",
			"region": "محافظة البحر الأحمر",
			"regionCode": "BA",
			"latitude": 28.359722222,
			"longitude": 33.0775
		},
		{
			"id": 3025255,
			"wikiDataId": "Q1938572",
			"type": "CITY",
			"city": "Mahmoudiyah, Egypt",
			"name": "المحمودية ، مصر",
			"country": "مصر",
			"countryCode": "EG",
			"region": "محافظة البحيرة",
			"regionCode": "BH",
			"latitude": 31.1839,
			"longitude": 30.5242
		},
		{
			"id": 26861,
			"wikiDataId": "Q986325",
			"type": "CITY",
			"city": "Safaga",
			"name": "سفاجا",
			"country": "مصر",
			"countryCode": "EG",
			"region": "محافظة البحر الأحمر",
			"regionCode": "BA",
			"latitude": 26.751666666,
			"longitude": 33.934444444
		},
		{
			"id": 3009757,
			"wikiDataId": "Q12233550",
			"type": "CITY",
			"city": "Qiman al-Arus",
			"name": "قيمان العروس",
			"country": "مصر",
			"countryCode": "EG",
			"region": "محافظة بني سويف",
			"regionCode": "BNS",
			"latitude": 29.30047,
			"longitude": 31.16943
		},
		{
			"id": 3023709,
			"wikiDataId": "Q6019934",
			"type": "CITY",
			"city": "Al Waqf",
			"name": "الوقف",
			"country": "مصر",
			"countryCode": "EG",
			"region": "محافظة قنا",
			"regionCode": "KN",
			"latitude": 26.080761,
			"longitude": 32.424503
		},
		{
			"id": 26341,
			"wikiDataId": "Q4165658",
			"type": "CITY",
			"city": "Kafr Saqr",
			"name": "كفر صقر",
			"country": "مصر",
			"countryCode": "EG",
			"region": "محافظة الشرقية",
			"regionCode": "SHR",
			"latitude": 30.796389,
			"longitude": 31.626111
		},
		{
			"id": 3031770,
			"wikiDataId": "Q287731",
			"type": "CITY",
			"city": "El-Tod",
			"name": "التود",
			"country": "مصر",
			"countryCode": "EG",
			"region": "محافظة الأقصر",
			"regionCode": "LX",
			"latitude": 25.583038888,
			"longitude": 32.533611111
		},
		{
			"id": 3051019,
			"wikiDataId": "Q7265828",
			"type": "CITY",
			"city": "Qaha",
			"name": "قها",
			"country": "مصر",
			"countryCode": "EG",
			"region": "محافظة القليوبية",
			"regionCode": "KB",
			"latitude": 30.28333333,
			"longitude": 31.2
		},
		{
			"id": 3022209,
			"wikiDataId": "Q189392",
			"type": "CITY",
			"city": "Karnak",
			"name": "الكرنك",
			"country": "مصر",
			"countryCode": "EG",
			"region": "محافظة الأقصر",
			"regionCode": "LX",
			"latitude": 25.718372,
			"longitude": 32.65805
		},
		{
			"id": 3054393,
			"wikiDataId": "Q16742873",
			"type": "CITY",
			"city": "Meir",
			"name": "مئير",
			"country": "مصر",
			"countryCode": "EG",
			"region": "محافظة أسيوط",
			"regionCode": "AST",
			"latitude": 27.441944444,
			"longitude": 30.746944444
		},
		{
			"id": 3008857,
			"wikiDataId": "Q12194327",
			"type": "CITY",
			"city": "el-Nazla",
			"name": "النزلة",
			"country": "مصر",
			"countryCode": "EG",
			"region": "محافظة الفيوم",
			"regionCode": "FYM",
			"latitude": 29.3063,
			"longitude": 30.651261111
		},
		{
			"id": 3030678,
			"wikiDataId": "Q12249928",
			"type": "CITY",
			"city": "Hirriyat Razna",
			"name": "حريات رزنا",
			"country": "مصر",
			"countryCode": "EG",
			"region": "محافظة الشرقية",
			"regionCode": "SHR",
			"latitude": 30.602777777,
			"longitude": 31.537222222
		},
		{
			"id": 26337,
			"wikiDataId": "Q310751",
			"type": "CITY",
			"city": "Al-Qusayr",
			"name": "القصير",
			"country": "مصر",
			"countryCode": "EG",
			"region": "محافظة البحر الأحمر",
			"regionCode": "BA",
			"latitude": 26.109072222,
			"longitude": 34.275997222
		},
		{
			"id": 26318,
			"wikiDataId": "Q23938961",
			"type": "CITY",
			"city": "Quţūr",
			"name": "Quţūr",
			"country": "مصر",
			"countryCode": "EG",
			"region": "محافظة الغربية",
			"regionCode": "GH",
			"latitude": 30.972222222,
			"longitude": 30.956111111
		},
		{
			"id": 3032883,
			"wikiDataId": "Q5607284",
			"type": "CITY",
			"city": "Kafr Shukr",
			"name": "كفر شكر",
			"country": "مصر",
			"countryCode": "EG",
			"region": "محافظة المنوفية",
			"regionCode": "MNF",
			"latitude": 30.546961,
			"longitude": 31.267333
		},
		{
			"id": 3077815,
			"wikiDataId": "Q1136023",
			"type": "CITY",
			"city": "Sharuna",
			"name": "شارونا",
			"country": "مصر",
			"countryCode": "EG",
			"region": "محافظة المنيا",
			"regionCode": "MN",
			"latitude": 28.593980555,
			"longitude": 30.851630555
		},
		{
			"id": 3038102,
			"wikiDataId": "Q781775",
			"type": "CITY",
			"city": "Busiris",
			"name": "بوسيرس",
			"country": "مصر",
			"countryCode": "EG",
			"region": "محافظة الغربية",
			"regionCode": "GH",
			"latitude": 30.881666666,
			"longitude": 31.236388888
		},
		{
			"id": 3074990,
			"wikiDataId": "Q935454",
			"type": "CITY",
			"city": "Qift",
			"name": "Qift",
			"country": "مصر",
			"countryCode": "EG",
			"region": "محافظة قنا",
			"regionCode": "KN",
			"latitude": 26,
			"longitude": 32.816666666
		},
		{
			"id": 3065188,
			"wikiDataId": "Q12199104",
			"type": "CITY",
			"city": "Bilifiya",
			"name": "بيليفيا",
			"country": "مصر",
			"countryCode": "EG",
			"region": "محافظة بني سويف",
			"regionCode": "BNS",
			"latitude": 29.12085,
			"longitude": 31.05047
		},
		{
			"id": 2975329,
			"wikiDataId": "Q1383404",
			"type": "CITY",
			"city": "Fayid",
			"name": "فايد",
			"country": "مصر",
			"countryCode": "EG",
			"region": "محافظة الإسماعيلية",
			"regionCode": "IS",
			"latitude": 30.326111111,
			"longitude": 32.298611111
		},
		{
			"id": 3007996,
			"wikiDataId": "Q12221876",
			"type": "CITY",
			"city": "Tummwah",
			"name": "تموة",
			"country": "مصر",
			"countryCode": "EG",
			"region": "محافظة الجيزة",
			"regionCode": "GZ",
			"latitude": 29.9352,
			"longitude": 31.26307
		},
		{
			"id": 3050075,
			"wikiDataId": "Q17486769",
			"type": "CITY",
			"city": "Naqada",
			"name": "نقادة",
			"country": "مصر",
			"countryCode": "EG",
			"region": "محافظة قنا",
			"regionCode": "KN",
			"latitude": 25.90107,
			"longitude": 32.72392
		},
		{
			"id": 3037823,
			"wikiDataId": "Q12191025",
			"type": "CITY",
			"city": "al-Fant",
			"name": "آل فنت",
			"country": "مصر",
			"countryCode": "EG",
			"region": "محافظة بني سويف",
			"regionCode": "BNS",
			"latitude": 28.75259,
			"longitude": 30.87716
		},
		{
			"id": 2998768,
			"wikiDataId": "Q12246558",
			"type": "CITY",
			"city": "Mit Nama",
			"name": "ميت ناما",
			"country": "مصر",
			"countryCode": "EG",
			"region": "محافظة القليوبية",
			"regionCode": "KB",
			"latitude": 30.145330555,
			"longitude": 31.23435
		},
		{
			"id": 2976751,
			"wikiDataId": "Q3008796",
			"type": "CITY",
			"city": "Cynopolis",
			"name": "سينوبوليس",
			"country": "مصر",
			"countryCode": "EG",
			"region": "محافظة المنيا",
			"regionCode": "MN",
			"latitude": 28.4833,
			"longitude": 30.7833
		},
		{
			"id": 3074714,
			"wikiDataId": "Q12216968",
			"type": "CITY",
			"city": "Sunbat",
			"name": "سنباط",
			"country": "مصر",
			"countryCode": "EG",
			"region": "محافظة الغربية",
			"regionCode": "GH",
			"latitude": 30.805738888,
			"longitude": 31.207011111
		},
		{
			"id": 2975071,
			"wikiDataId": "Q381038",
			"type": "CITY",
			"city": "Sais",
			"name": "سايس",
			"country": "مصر",
			"countryCode": "EG",
			"region": "محافظة الغربية",
			"regionCode": "GH",
			"latitude": 30.96124,
			"longitude": 30.76802
		},
		{
			"id": 26616,
			"wikiDataId": "Q4116186",
			"type": "CITY",
			"city": "Bawiti",
			"name": "الباويطي",
			"country": "مصر",
			"countryCode": "EG",
			"region": "محافظة الجيزة",
			"regionCode": "GZ",
			"latitude": 28.35,
			"longitude": 28.866666666
		},
		{
			"id": 3070251,
			"wikiDataId": "Q12212278",
			"type": "CITY",
			"city": "Deir Abu Hinnis",
			"name": "دير أبو هنيس",
			"country": "مصر",
			"countryCode": "EG",
			"region": "محافظة المنيا",
			"regionCode": "MN",
			"latitude": 27.786388888,
			"longitude": 30.905
		},
		{
			"id": 3055560,
			"wikiDataId": "Q14215956",
			"type": "CITY",
			"city": "Mut",
			"name": "موت",
			"country": "مصر",
			"countryCode": "EG",
			"region": "محافظة الوادي الجديد",
			"regionCode": "WAD",
			"latitude": 25.4875,
			"longitude": 28.983333333
		},
		{
			"id": 2995955,
			"wikiDataId": "Q335383",
			"type": "CITY",
			"city": "Abū Ṣīr el-Malaq",
			"name": "أبو صير الملق",
			"country": "مصر",
			"countryCode": "EG",
			"region": "محافظة الفيوم",
			"regionCode": "FYM",
			"latitude": 29.251666666,
			"longitude": 31.091944444
		},
		{
			"id": 2986026,
			"wikiDataId": "Q817286",
			"type": "CITY",
			"city": "Beni Hasan",
			"name": "بني حسن",
			"country": "مصر",
			"countryCode": "EG",
			"region": "محافظة المنيا",
			"regionCode": "MN",
			"latitude": 27.931388888,
			"longitude": 30.875280555
		},
		{
			"id": 3035746,
			"wikiDataId": "Q855265",
			"type": "CITY",
			"city": "Biahmu",
			"name": "بياهمو",
			"country": "مصر",
			"countryCode": "EG",
			"region": "محافظة الفيوم",
			"regionCode": "FYM",
			"latitude": 29.369630555,
			"longitude": 30.853788888
		},
		{
			"id": 3011265,
			"wikiDataId": "Q12184780",
			"type": "CITY",
			"city": "el-Bayahu",
			"name": "البياهو",
			"country": "مصر",
			"countryCode": "EG",
			"region": "محافظة المنيا",
			"regionCode": "MN",
			"latitude": 28.261388888,
			"longitude": 30.731669444
		},
		{
			"id": 3056299,
			"wikiDataId": "Q548805",
			"type": "CITY",
			"city": "El Hiba",
			"name": "الهبة",
			"country": "مصر",
			"countryCode": "EG",
			"region": "محافظة البحر الأحمر",
			"regionCode": "BA",
			"latitude": 28.8,
			"longitude": 30.91666667
		},
		{
			"id": 3043918,
			"wikiDataId": "Q734370",
			"type": "CITY",
			"city": "Tuna el-Gebel",
			"name": "تونة الجبل",
			"country": "مصر",
			"countryCode": "EG",
			"region": "محافظة المنيا",
			"regionCode": "MN",
			"latitude": 27.77455,
			"longitude": 30.7386
		},
		{
			"id": 3084424,
			"wikiDataId": "Q581142",
			"type": "CITY",
			"city": "el-Bahnasa",
			"name": "البهناسة",
			"country": "مصر",
			"countryCode": "EG",
			"region": "محافظة المنيا",
			"regionCode": "MN",
			"latitude": 28.535280555,
			"longitude": 30.660561111
		},
		{
			"id": 3092758,
			"wikiDataId": "Q12197893",
			"type": "CITY",
			"city": "Burg Rashid",
			"name": "برج راشد",
			"country": "مصر",
			"countryCode": "EG",
			"region": "محافظة البحيرة",
			"regionCode": "BH",
			"latitude": 31.439169444,
			"longitude": 30.39
		},
		{
			"id": 2987331,
			"wikiDataId": "Q287716",
			"type": "CITY",
			"city": "Medamud",
			"name": "مدامود",
			"country": "مصر",
			"countryCode": "EG",
			"region": "محافظة الأقصر",
			"regionCode": "LX",
			"latitude": 25.733330555,
			"longitude": 32.7125
		},
		{
			"id": 26713,
			"wikiDataId": "Q286510",
			"type": "CITY",
			"city": "El Gouna",
			"name": "الجونة",
			"country": "مصر",
			"countryCode": "EG",
			"region": "محافظة البحر الأحمر",
			"regionCode": "BA",
			"latitude": 27.385,
			"longitude": 33.679166666
		},
		{
			"id": 3070405,
			"wikiDataId": "Q1068140",
			"type": "CITY",
			"city": "Xois",
			"name": "كسويس",
			"country": "مصر",
			"countryCode": "EG",
			"region": "محافظة كفر الشيخ",
			"regionCode": "KFS",
			"latitude": 31.088055555,
			"longitude": 30.945555555
		},
		{
			"id": 3084892,
			"wikiDataId": "Q1157646",
			"type": "CITY",
			"city": "Deir el-Bersha",
			"name": "دير البرشا",
			"country": "مصر",
			"countryCode": "EG",
			"region": "محافظة المنيا",
			"regionCode": "MN",
			"latitude": 27.757219444,
			"longitude": 30.91
		},
		{
			"id": 3041487,
			"wikiDataId": "Q12211846",
			"type": "CITY",
			"city": "Dalas",
			"name": "دالاس",
			"country": "مصر",
			"countryCode": "EG",
			"region": "محافظة الفيوم",
			"regionCode": "FYM",
			"latitude": 29.18587,
			"longitude": 31.13432
		},
		{
			"id": 3065098,
			"wikiDataId": "Q12197977",
			"type": "CITY",
			"city": "Birqash",
			"name": "بيرقاش",
			"country": "مصر",
			"countryCode": "EG",
			"region": "محافظة الجيزة",
			"regionCode": "GZ",
			"latitude": 30.169166666,
			"longitude": 31.041666666
		},
		{
			"id": 3091412,
			"wikiDataId": "Q2097405",
			"type": "CITY",
			"city": "Qantir",
			"name": "قنطار",
			"country": "مصر",
			"countryCode": "EG",
			"region": "محافظة الشرقية",
			"regionCode": "SHR",
			"latitude": 30.803188888,
			"longitude": 31.83795
		},
		{
			"id": 3093283,
			"wikiDataId": "Q2264395",
			"type": "CITY",
			"city": "Sidmant el-Gebel",
			"name": "سيدمنت الجبل",
			"country": "مصر",
			"countryCode": "EG",
			"region": "محافظة الفيوم",
			"regionCode": "FYM",
			"latitude": 29.085555555,
			"longitude": 30.934444444
		},
		{
			"id": 3086989,
			"wikiDataId": "Q14207691",
			"type": "CITY",
			"city": "Deir el-Adra, Gebel et-Teir",
			"name": "دير العدرا ، جبل الطير",
			"country": "مصر",
			"countryCode": "EG",
			"region": "محافظة البحر الأحمر",
			"regionCode": "BA",
			"latitude": 28.280561111,
			"longitude": 30.7475
		},
		{
			"id": 3069836,
			"wikiDataId": "Q4894815",
			"type": "CITY",
			"city": "Zawyet el-Maiyitin",
			"name": "زاوية المييتين",
			"country": "مصر",
			"countryCode": "EG",
			"region": "محافظة المنيا",
			"regionCode": "MN",
			"latitude": 28.0625,
			"longitude": 30.8175
		},
		{
			"id": 26384,
			"wikiDataId": "Q867603",
			"type": "CITY",
			"city": "El-Tor",
			"name": "الطور",
			"country": "مصر",
			"countryCode": "EG",
			"region": "محافظة جنوب سيناء",
			"regionCode": "JS",
			"latitude": 28.233333333,
			"longitude": 33.616666666
		},
		{
			"id": 2968679,
			"wikiDataId": "Q1043090",
			"type": "CITY",
			"city": "Borg El Arab",
			"name": "برج العرب",
			"country": "مصر",
			"countryCode": "EG",
			"region": "محافظة الإسكندرية",
			"regionCode": "ALX",
			"latitude": 30.916666666,
			"longitude": 29.533333333
		},
		{
			"id": 3023293,
			"wikiDataId": "Q12211771",
			"type": "CITY",
			"city": "Dishasha",
			"name": "ديشاشا",
			"country": "مصر",
			"countryCode": "EG",
			"region": "محافظة بني سويف",
			"regionCode": "BNS",
			"latitude": 28.98335,
			"longitude": 30.84872
		},
		{
			"id": 2985514,
			"wikiDataId": "Q12246499",
			"type": "CITY",
			"city": "Mit Damsis",
			"name": "ميت دامسيس",
			"country": "مصر",
			"countryCode": "EG",
			"region": "محافظة الدقهلية",
			"regionCode": "DK",
			"latitude": 30.82665,
			"longitude": 31.222611111
		},
		{
			"id": 3063397,
			"wikiDataId": "Q14218406",
			"type": "CITY",
			"city": "el-Qala",
			"name": "القلعة",
			"country": "مصر",
			"countryCode": "EG",
			"region": "محافظة قنا",
			"regionCode": "KN",
			"latitude": 26.005138888,
			"longitude": 32.817830555
		},
		{
			"id": 2975770,
			"wikiDataId": "Q12191150",
			"type": "CITY",
			"city": "al-Qayat",
			"name": "القيات",
			"country": "مصر",
			"countryCode": "EG",
			"region": "محافظة المنيا",
			"regionCode": "MN",
			"latitude": 28.6676,
			"longitude": 30.68747
		},
		{
			"id": 3054835,
			"wikiDataId": "Q12217180",
			"type": "CITY",
			"city": "Sawada",
			"name": "سوادا",
			"country": "مصر",
			"countryCode": "EG",
			"region": "محافظة المنيا",
			"regionCode": "MN",
			"latitude": 28.0775,
			"longitude": 30.795280555
		},
		{
			"id": 3005371,
			"wikiDataId": "Q7303115",
			"type": "CITY",
			"city": "Abgig",
			"name": "أبج",
			"country": "مصر",
			"countryCode": "EG",
			"region": "محافظة الفيوم",
			"regionCode": "FYM",
			"latitude": 29.286117,
			"longitude": 30.815168
		},
		{
			"id": 2996830,
			"wikiDataId": "Q814450",
			"type": "CITY",
			"city": "Behbeit el-Hagara",
			"name": "بهبيت الحجارة",
			"country": "مصر",
			"countryCode": "EG",
			"region": "محافظة الغربية",
			"regionCode": "GH",
			"latitude": 31.031111111,
			"longitude": 31.286666666
		},
		{
			"id": 3014527,
			"wikiDataId": "Q12221613",
			"type": "CITY",
			"city": "Taha el-Amida",
			"name": "طه الاميدا",
			"country": "مصر",
			"countryCode": "EG",
			"region": "محافظة المنيا",
			"regionCode": "MN",
			"latitude": 28.189169444,
			"longitude": 30.698061111
		},
		{
			"id": 2979051,
			"wikiDataId": "Q2883627",
			"type": "CITY",
			"city": "Bawit",
			"name": "باويت",
			"country": "مصر",
			"countryCode": "EG",
			"region": "محافظة أسيوط",
			"regionCode": "AST",
			"latitude": 27.55,
			"longitude": 30.720833333
		},
		{
			"id": 3086294,
			"wikiDataId": "Q2233285",
			"type": "CITY",
			"city": "Shanhur",
			"name": "شنهور",
			"country": "مصر",
			"countryCode": "EG",
			"region": "محافظة قنا",
			"regionCode": "KN",
			"latitude": 25.860388888,
			"longitude": 32.777888888
		},
		{
			"id": 2975955,
			"wikiDataId": "Q14214852",
			"type": "CITY",
			"city": "Mandisha",
			"name": "منديشا",
			"country": "مصر",
			"countryCode": "EG",
			"region": "محافظة الجيزة",
			"regionCode": "GZ",
			"latitude": 28.351538888,
			"longitude": 28.931719444
		},
		{
			"id": 3006923,
			"wikiDataId": "Q12195763",
			"type": "CITY",
			"city": "Basuna",
			"name": "باسونا",
			"country": "مصر",
			"countryCode": "EG",
			"region": "محافظة سوهاج",
			"regionCode": "SHG",
			"latitude": 26.67282,
			"longitude": 31.60415
		},
		{
			"id": 3000807,
			"wikiDataId": "Q1604678",
			"type": "CITY",
			"city": "al-Hammamiya",
			"name": "الحمامات",
			"country": "مصر",
			"countryCode": "EG",
			"region": "محافظة البحر الأحمر",
			"regionCode": "BA",
			"latitude": 26.93071,
			"longitude": 31.48813
		},
		{
			"id": 3019641,
			"wikiDataId": "Q12212302",
			"type": "CITY",
			"city": "Deir el-Sanquriya",
			"name": "دير السنقورية",
			"country": "مصر",
			"countryCode": "EG",
			"region": "محافظة المنيا",
			"regionCode": "MN",
			"latitude": 28.483330555,
			"longitude": 30.65
		},
		{
			"id": 3019049,
			"wikiDataId": "Q12182305",
			"type": "CITY",
			"city": "Ishnin el-Nasara",
			"name": "عشنين النصارى",
			"country": "مصر",
			"countryCode": "EG",
			"region": "محافظة المنيا",
			"regionCode": "MN",
			"latitude": 28.6125,
			"longitude": 30.772219444
		},
		{
			"id": 3060282,
			"wikiDataId": "Q1245502",
			"type": "CITY",
			"city": "Sallum",
			"name": "السلوم",
			"country": "مصر",
			"countryCode": "EG",
			"region": "محافظة مطروح",
			"regionCode": "MT",
			"latitude": 31.5525,
			"longitude": 25.1575
		},
		{
			"id": 3090232,
			"wikiDataId": "Q12193415",
			"type": "CITY",
			"city": "Mo'alla",
			"name": "المعلا",
			"country": "مصر",
			"countryCode": "EG",
			"region": "محافظة قنا",
			"regionCode": "KN",
			"latitude": 25.472219444,
			"longitude": 32.525
		},
		{
			"id": 2985292,
			"wikiDataId": "Q741742",
			"type": "CITY",
			"city": "Akoris",
			"name": "أكوريس",
			"country": "مصر",
			"countryCode": "EG",
			"region": "محافظة المنيا",
			"regionCode": "MN",
			"latitude": 28.188888888,
			"longitude": 30.769438888
		},
		{
			"id": 3001400,
			"wikiDataId": "Q14213384",
			"type": "CITY",
			"city": "el-Kufur",
			"name": "الكفر",
			"country": "مصر",
			"countryCode": "EG",
			"region": "محافظة المنيا",
			"regionCode": "MN",
			"latitude": 28.445425,
			"longitude": 30.810727777
		},
		{
			"id": 3004653,
			"wikiDataId": "Q12186704",
			"type": "CITY",
			"city": "al-Hammam",
			"name": "الحمام",
			"country": "مصر",
			"countryCode": "EG",
			"region": "محافظة الفيوم",
			"regionCode": "FYM",
			"latitude": 29.22977,
			"longitude": 31.01547
		},
		{
			"id": 2968176,
			"wikiDataId": "Q124281",
			"type": "CITY",
			"city": "Antinoöpolis",
			"name": "أنتينوبوليس",
			"country": "مصر",
			"countryCode": "EG",
			"region": "محافظة المنيا",
			"regionCode": "MN",
			"latitude": 27.8075,
			"longitude": 30.872780555
		},
		{
			"id": 26619,
			"type": "CITY",
			"city": "Siwa Oasis",
			"name": "واحة سيوة",
			"country": "مصر",
			"countryCode": "EG",
			"region": "محافظة مطروح",
			"regionCode": "MT",
			"latitude": 29.2032,
			"longitude": 25.51965
		},
		{
			"id": 3076252,
			"wikiDataId": "Q311862",
			"type": "CITY",
			"city": "Shalateen",
			"name": "شلاتين",
			"country": "مصر",
			"countryCode": "EG",
			"region": "محافظة البحر الأحمر",
			"regionCode": "BA",
			"latitude": 23.133333333,
			"longitude": 35.6
		},
		{
			"id": 3181516,
			"wikiDataId": "Q12212289",
			"type": "CITY",
			"city": "Deir el-Garnus",
			"name": "دير الجرنوس",
			"country": "مصر",
			"countryCode": "EG",
			"region": "محافظة المنيا",
			"regionCode": "MN",
			"latitude": 28.61,
			"longitude": 30.706669444
		},
		{
			"id": 2973930,
			"wikiDataId": "Q12186261",
			"type": "CITY",
			"city": "al-Harraniya",
			"name": "الحرانية",
			"country": "مصر",
			"countryCode": "EG",
			"region": "محافظة الجيزة",
			"regionCode": "GZ",
			"latitude": 29.96667,
			"longitude": 31.16667
		},
		{
			"id": 26671,
			"wikiDataId": "Q1042005",
			"type": "CITY",
			"city": "Saint Catherine",
			"name": "سانت كاترين",
			"country": "مصر",
			"countryCode": "EG",
			"region": "محافظة جنوب سيناء",
			"regionCode": "JS",
			"latitude": 28.5644,
			"longitude": 33.9524
		},
		{
			"id": 26083,
			"wikiDataId": "Q370495",
			"type": "CITY",
			"city": "Dahab",
			"name": "دهب",
			"country": "مصر",
			"countryCode": "EG",
			"region": "محافظة جنوب سيناء",
			"regionCode": "JS",
			"latitude": 28.493055555,
			"longitude": 34.504722222
		},
		{
			"id": 3049655,
			"wikiDataId": "Q14218423",
			"type": "CITY",
			"city": "Qasr el-Dakhla",
			"name": "قصر الداخلة",
			"country": "مصر",
			"countryCode": "EG",
			"region": "محافظة الوادي الجديد",
			"regionCode": "WAD",
			"latitude": 25.695869444,
			"longitude": 28.8837
		},
		{
			"id": 26778,
			"wikiDataId": "Q1521754",
			"type": "CITY",
			"city": "Makadi Bay",
			"name": "خليج مكادي",
			"country": "مصر",
			"countryCode": "EG",
			"region": "محافظة البحر الأحمر",
			"regionCode": "BA",
			"latitude": 26.9931,
			"longitude": 33.898569444
		},
		{
			"id": 3095059,
			"wikiDataId": "Q14223587",
			"type": "CITY",
			"city": "el-Zabu",
			"name": "الزبو",
			"country": "مصر",
			"countryCode": "EG",
			"region": "محافظة الجيزة",
			"regionCode": "GZ",
			"latitude": 28.369388888,
			"longitude": 28.936738888
		},
		{
			"id": 3098431,
			"wikiDataId": "Q4843907",
			"type": "CITY",
			"city": "Baris",
			"name": "باريس",
			"country": "مصر",
			"countryCode": "EG",
			"region": "محافظة الوادي الجديد",
			"regionCode": "WAD",
			"latitude": 24.674280555,
			"longitude": 30.602288888
		},
		{
			"id": 26324,
			"type": "CITY",
			"city": "Munshāt ‘Alī Āghā",
			"name": "منشأت علي اغا",
			"country": "مصر",
			"countryCode": "EG",
			"region": "محافظة كفر الشيخ",
			"regionCode": "KFS",
			"latitude": 31.15791,
			"longitude": 30.70177
		},
		{
			"id": 2971815,
			"wikiDataId": "Q804654",
			"type": "CITY",
			"city": "Balat",
			"name": "بلاط",
			"country": "مصر",
			"countryCode": "EG",
			"region": "محافظة الوادي الجديد",
			"regionCode": "WAD",
			"latitude": 25.564030555,
			"longitude": 29.265819444
		},
		{
			"id": 3082944,
			"wikiDataId": "Q14221802",
			"type": "CITY",
			"city": "Tineida",
			"name": "تينييدا",
			"country": "مصر",
			"countryCode": "EG",
			"region": "محافظة الوادي الجديد",
			"regionCode": "WAD",
			"latitude": 25.512861111,
			"longitude": 29.339969444
		},
		{
			"id": 26864,
			"wikiDataId": "Q14208893",
			"type": "CITY",
			"city": "Farafra town",
			"name": "بلدة الفرافرة",
			"country": "مصر",
			"countryCode": "EG",
			"region": "محافظة الوادي الجديد",
			"regionCode": "WAD",
			"latitude": 27.05947,
			"longitude": 27.96793
		},
		{
			"id": 3011464,
			"wikiDataId": "Q592644",
			"type": "CITY",
			"city": "Deir Durunka",
			"name": "دير دورونكا",
			"country": "مصر",
			"countryCode": "EG",
			"region": "محافظة الوادي الجديد",
			"regionCode": "WAD",
			"latitude": 27.111388888,
			"longitude": 31.166666666
		},
		{
			"id": 2989658,
			"wikiDataId": "Q14212146",
			"type": "CITY",
			"city": "Ismant",
			"name": "إسمنت",
			"country": "مصر",
			"countryCode": "EG",
			"region": "محافظة الوادي الجديد",
			"regionCode": "WAD",
			"latitude": 25.5269,
			"longitude": 29.0678
		},
		{
			"id": 3005825,
			"wikiDataId": "Q14215162",
			"type": "CITY",
			"city": "al-Ma'sara, el-Dakhla",
			"name": "المعصرة بالداخلة",
			"country": "مصر",
			"countryCode": "EG",
			"region": "محافظة الوادي الجديد",
			"regionCode": "WAD",
			"latitude": 25.509408333,
			"longitude": 29.05695
		},
		{
			"id": 26096,
			"wikiDataId": "Q1011488",
			"type": "CITY",
			"city": "Nuweiba",
			"name": "نويبع",
			"country": "مصر",
			"countryCode": "EG",
			"region": "محافظة جنوب سيناء",
			"regionCode": "JS",
			"latitude": 29.033969444,
			"longitude": 34.659094444
		},
		{
			"id": 2991191,
			"wikiDataId": "Q167780",
			"type": "CITY",
			"city": "Zawiyet Umm el-Rakham",
			"name": "زاوية أم الرخم",
			"country": "مصر",
			"countryCode": "EG",
			"region": "محافظة مطروح",
			"regionCode": "MT",
			"latitude": 31.39611111,
			"longitude": 27.04388889
		},
		{
			"id": 26712,
			"wikiDataId": "Q6655437",
			"type": "CITY",
			"city": "Abu Simbel",
			"name": "أبو سمبل",
			"country": "مصر",
			"countryCode": "EG",
			"region": "محافظة أسوان",
			"regionCode": "ASN",
			"latitude": 22.336944444,
			"longitude": 31.625555555
		},
		{
			"id": 26914,
			"wikiDataId": "Q204439",
			"type": "CITY",
			"city": "El Alamein",
			"name": "العلمين",
			"country": "مصر",
			"countryCode": "EG",
			"region": "محافظة مطروح",
			"regionCode": "MT",
			"latitude": 30.833333333,
			"longitude": 28.95
		},
		{
			"id": 3046827,
			"wikiDataId": "Q14215804",
			"type": "CITY",
			"city": "el-Munira",
			"name": "المنيرة",
			"country": "مصر",
			"countryCode": "EG",
			"region": "محافظة الوادي الجديد",
			"regionCode": "WAD",
			"latitude": 25.616652777,
			"longitude": 30.649716666
		},
		{
			"id": 3027521,
			"wikiDataId": "Q12204786",
			"type": "CITY",
			"city": "Gabal an-Nur",
			"name": "جبل النور",
			"country": "مصر",
			"countryCode": "EG",
			"region": "محافظة بني سويف",
			"regionCode": "BNS",
			"latitude": 28.95,
			"longitude": 31.03333
		},
		{
			"id": 2967820,
			"wikiDataId": "Q12212334",
			"type": "CITY",
			"city": "Dayr al-Maymun",
			"name": "دير الميمون",
			"country": "مصر",
			"countryCode": "EG",
			"region": "محافظة البحر الأحمر",
			"regionCode": "BA",
			"latitude": 29.22519,
			"longitude": 31.22026
		},
		{
			"id": 26705,
			"wikiDataId": "Q1001901",
			"type": "CITY",
			"city": "Marsa Alam",
			"name": "مرسى علم",
			"country": "مصر",
			"countryCode": "EG",
			"region": "محافظة البحر الأحمر",
			"regionCode": "BA",
			"latitude": 25.066666666,
			"longitude": 34.9
		},
		{
			"id": 3066608,
			"wikiDataId": "Q12232661",
			"type": "CITY",
			"city": "El-Qalamun",
			"name": "القلمون",
			"country": "مصر",
			"countryCode": "EG",
			"region": "محافظة الوادي الجديد",
			"regionCode": "WAD",
			"latitude": 25.550277777,
			"longitude": 28.908055555
		},
		{
			"id": 3004049,
			"wikiDataId": "Q14201426",
			"type": "CITY",
			"city": "Aghurmi",
			"name": "أغورمي",
			"country": "مصر",
			"countryCode": "EG",
			"region": "محافظة مطروح",
			"regionCode": "MT",
			"latitude": 29.205138888,
			"longitude": 25.543588888
		},
		{
			"id": 3089029,
			"wikiDataId": "Q14214764",
			"type": "CITY",
			"city": "el-Maks el-Qibli",
			"name": "المكس القبلي",
			"country": "مصر",
			"countryCode": "EG",
			"region": "محافظة الوادي الجديد",
			"regionCode": "WAD",
			"latitude": 24.555238888,
			"longitude": 30.611088888
		},
		{
			"id": 3021081,
			"wikiDataId": "Q867592",
			"type": "CITY",
			"city": "Taba",
			"name": "طابا",
			"country": "مصر",
			"countryCode": "EG",
			"region": "محافظة جنوب سيناء",
			"regionCode": "JS",
			"latitude": 29.49199,
			"longitude": 34.89572
		},
		{
			"id": 3038355,
			"wikiDataId": "Q14218642",
			"type": "CITY",
			"city": "Ras Nasrani",
			"name": "رأس نصراني",
			"country": "مصر",
			"countryCode": "EG",
			"region": "محافظة جنوب سيناء",
			"regionCode": "JS",
			"latitude": 27.964719444,
			"longitude": 34.416111111
		},
		{
			"id": 3072218,
			"wikiDataId": "Q192134",
			"type": "CITY",
			"city": "Saqqara",
			"name": "سقارة",
			"country": "مصر",
			"countryCode": "EG",
			"region": "محافظة الجيزة",
			"regionCode": "GZ",
			"latitude": 29.85,
			"longitude": 31.233333333
		},
		{
			"id": 2983439,
			"wikiDataId": "Q12206188",
			"type": "CITY",
			"city": "Ginah",
			"name": "جينا",
			"country": "مصر",
			"countryCode": "EG",
			"region": "محافظة الوادي الجديد",
			"regionCode": "WAD",
			"latitude": 25.328938888,
			"longitude": 30.530330555
		},
		{
			"id": 3055744,
			"wikiDataId": "Q23956202",
			"type": "CITY",
			"city": "Abū Şīr",
			"name": "Ab .r",
			"country": "مصر",
			"countryCode": "EG",
			"region": "محافظة الجيزة",
			"regionCode": "GZ",
			"latitude": 29.883333333,
			"longitude": 31.216666666
		},
		{
			"id": 2987892,
			"wikiDataId": "Q9285742",
			"type": "CITY",
			"city": "Hamata",
			"name": "حماطة",
			"country": "مصر",
			"countryCode": "EG",
			"region": "محافظة البحر الأحمر",
			"regionCode": "BA",
			"latitude": 24.28595,
			"longitude": 35.378888888
		}
	]
}
