{
	"cities": [
		{
			"id": 70704,
			"wikiDataId": "Q980396",
			"type": "CITY",
			"city": "Al Ahmadi",
			"name": "الأحمدي",
			"country": "الكويت",
			"countryCode": "KW",
			"region": "محافظة الأحمدي",
			"regionCode": "AH",
			"latitude": 29.090555555,
			"longitude": 48.065277777
		},
		{
			"id": 70557,
			"wikiDataId": "Q35178",
			"type": "CITY",
			"city": "Kuwait City",
			"name": "مدينة الكويت",
			"country": "الكويت",
			"countryCode": "KW",
			"region": "محافظة العاصمة",
			"regionCode": "KU",
			"latitude": 29.375,
			"longitude": 47.98
		},
		{
			"id": 70086,
			"wikiDataId": "Q1077024",
			"type": "ADM2",
			"city": "Al Jahra",
			"name": "الجهراء",
			"country": "الكويت",
			"countryCode": "KW",
			"region": "محافظة الجهراء",
			"regionCode": "JA",
			"latitude": 29.35,
			"longitude": 47.683333333
		},
		{
			"id": 70650,
			"wikiDataId": "Q3235220",
			"type": "CITY",
			"city": "Hawalli",
			"name": "حولي",
			"country": "الكويت",
			"countryCode": "KW",
			"region": "محافظة حولي",
			"regionCode": "HA",
			"latitude": 29.33333333,
			"longitude": 48.03333333
		},
		{
			"id": 70739,
			"wikiDataId": "Q3505782",
			"type": "CITY",
			"city": "Salmiya",
			"name": "السالمية",
			"country": "الكويت",
			"countryCode": "KW",
			"region": "محافظة حولي",
			"regionCode": "HA",
			"latitude": 29.333333333,
			"longitude": 48.083333333
		},
		{
			"id": 69846,
			"wikiDataId": "Q3495478",
			"type": "ADM2",
			"city": "Sabah Al-Salem",
			"name": "صباح السالم",
			"country": "الكويت",
			"countryCode": "KW",
			"region": "محافظة مبارك الكبير",
			"regionCode": "MU",
			"latitude": 29.256944444,
			"longitude": 48.056944444
		},
		{
			"id": 70178,
			"wikiDataId": "Q1195526",
			"type": "ADM2",
			"city": "Al Farwaniyah",
			"name": "الفروانية",
			"country": "الكويت",
			"countryCode": "KW",
			"region": "محافظة الفروانية",
			"regionCode": "FA",
			"latitude": 29.275555555,
			"longitude": 47.960277777
		},
		{
			"id": 70579,
			"wikiDataId": "Q3495485",
			"type": "CITY",
			"city": "Fahaheel District",
			"name": "حي الفحيحيل",
			"country": "الكويت",
			"countryCode": "KW",
			"region": "محافظة الأحمدي",
			"regionCode": "AH",
			"latitude": 29.0825,
			"longitude": 48.130277777
		},
		{
			"id": 69878,
			"type": "CITY",
			"city": "Ar Rumaythīyah",
			"name": "الرميثية",
			"country": "الكويت",
			"countryCode": "KW",
			"region": "محافظة حولي",
			"regionCode": "HA",
			"latitude": 29.31167,
			"longitude": 48.07417
		},
		{
			"id": 70269,
			"wikiDataId": "Q27347104",
			"type": "CITY",
			"city": "Ar Riqqah",
			"name": "الرقة",
			"country": "الكويت",
			"countryCode": "KW",
			"region": "محافظة الأحمدي",
			"regionCode": "AH",
			"latitude": 29.145833333,
			"longitude": 48.094722222
		},
		{
			"id": 70149,
			"wikiDataId": "Q1179881",
			"type": "CITY",
			"city": "Salwa",
			"name": "سلوى",
			"country": "الكويت",
			"countryCode": "KW",
			"region": "محافظة حولي",
			"regionCode": "HA",
			"latitude": 29.3,
			"longitude": 48.08333333
		},
		{
			"id": 70518,
			"wikiDataId": "Q4116005",
			"type": "CITY",
			"city": "Mangaf",
			"name": "المنقف",
			"country": "الكويت",
			"countryCode": "KW",
			"region": "محافظة الأحمدي",
			"regionCode": "AH",
			"latitude": 29.096111111,
			"longitude": 48.132777777
		},
		{
			"id": 69854,
			"type": "CITY",
			"city": "Ar Rābiyah",
			"name": "الرابية",
			"country": "الكويت",
			"countryCode": "KW",
			"region": "محافظة العاصمة",
			"regionCode": "KU",
			"latitude": 29.295,
			"longitude": 47.93306
		},
		{
			"id": 69880,
			"wikiDataId": "Q4268642",
			"type": "CITY",
			"city": "Bayan",
			"name": "بيان",
			"country": "الكويت",
			"countryCode": "KW",
			"region": "محافظة حولي",
			"regionCode": "HA",
			"latitude": 29.316666666,
			"longitude": 48.033333333
		},
		{
			"id": 69850,
			"wikiDataId": "Q5450984",
			"type": "CITY",
			"city": "Fintas",
			"name": "الفنطاس",
			"country": "الكويت",
			"countryCode": "KW",
			"region": "محافظة الأحمدي",
			"regionCode": "AH",
			"latitude": 29.173888888,
			"longitude": 48.121111111
		},
		{
			"id": 70662,
			"type": "CITY",
			"city": "Janūb as Surrah",
			"name": "Janb as Surrah",
			"country": "الكويت",
			"countryCode": "KW",
			"region": "محافظة الفروانية",
			"regionCode": "FA",
			"latitude": 29.26917,
			"longitude": 47.97806
		},
		{
			"id": 70517,
			"type": "CITY",
			"city": "Al Mahbūlah",
			"name": "المحبيلة",
			"country": "الكويت",
			"countryCode": "KW",
			"region": "محافظة الأحمدي",
			"regionCode": "AH",
			"latitude": 29.145,
			"longitude": 48.13028
		},
		{
			"id": 70243,
			"type": "CITY",
			"city": "Ad Dasmah",
			"name": "الدسمة",
			"country": "الكويت",
			"countryCode": "KW",
			"region": "محافظة العاصمة",
			"regionCode": "KU",
			"latitude": 29.365,
			"longitude": 48.00139
		},
		{
			"id": 70236,
			"wikiDataId": "Q4704795",
			"type": "CITY",
			"city": "Al Shamiya",
			"name": "الشامية",
			"country": "الكويت",
			"countryCode": "KW",
			"region": "محافظة العاصمة",
			"regionCode": "KU",
			"latitude": 29.35,
			"longitude": 47.96666667
		},
		{
			"id": 70125,
			"wikiDataId": "Q27347097",
			"type": "CITY",
			"city": "Al Wafrah",
			"name": "الوفرة",
			"country": "الكويت",
			"countryCode": "KW",
			"region": "محافظة الأحمدي",
			"regionCode": "AH",
			"latitude": 28.639166666,
			"longitude": 47.930555555
		},
		{
			"id": 70291,
			"type": "CITY",
			"city": "Az Zawr",
			"name": "الزور",
			"country": "الكويت",
			"countryCode": "KW",
			"region": "محافظة العاصمة",
			"regionCode": "KU",
			"latitude": 29.4425,
			"longitude": 48.27472
		},
		{
			"id": 69835,
			"type": "CITY",
			"city": "Al-Masayel",
			"name": "المسايل",
			"country": "الكويت",
			"countryCode": "KW",
			"region": "محافظة مبارك الكبير",
			"regionCode": "MU",
			"latitude": 29.2393,
			"longitude": 48.08862
		},
		{
			"id": 70540,
			"type": "CITY",
			"city": "Al Funayţīs",
			"name": "الفناي",
			"country": "الكويت",
			"countryCode": "KW",
			"region": "محافظة مبارك الكبير",
			"regionCode": "MU",
			"latitude": 29.22528,
			"longitude": 48.10167
		},
		{
			"id": 69919,
			"type": "CITY",
			"city": "Abu Al Hasaniya",
			"name": "ابو الحصانية",
			"country": "الكويت",
			"countryCode": "KW",
			"region": "محافظة مبارك الكبير",
			"regionCode": "MU",
			"latitude": 29.19076,
			"longitude": 48.11355
		},
		{
			"id": 70072,
			"type": "CITY",
			"city": "Abu Fatira",
			"name": "ابو فطيرة",
			"country": "الكويت",
			"countryCode": "KW",
			"region": "محافظة مبارك الكبير",
			"regionCode": "MU",
			"latitude": 29.19746,
			"longitude": 48.10278
		}
	]
}
