{
	"cities": [
		{
			"id": 105350,
			"wikiDataId": "Q3692",
			"type": "CITY",
			"city": "Riyadh",
			"name": "Riyadh",
			"country": "Saudi Arabia",
			"countryCode": "SA",
			"region": "Riyadh Region",
			"regionCode": "01",
			"latitude": 24.65,
			"longitude": 46.71
		},
		{
			"id": 105153,
			"wikiDataId": "Q374365",
			"type": "CITY",
			"city": "Jeddah",
			"name": "Jeddah",
			"country": "Saudi Arabia",
			"countryCode": "SA",
			"region": "Makkah Region",
			"regionCode": "02",
			"latitude": 21.542777777,
			"longitude": 39.172777777
		},
		{
			"id": 105952,
			"wikiDataId": "Q5806",
			"type": "CITY",
			"city": "Mecca",
			"name": "Mecca",
			"country": "Saudi Arabia",
			"countryCode": "SA",
			"region": "Makkah Region",
			"regionCode": "02",
			"latitude": 21.4225,
			"longitude": 39.826111111
		},
		{
			"id": 105666,
			"wikiDataId": "Q35484",
			"type": "CITY",
			"city": "Medina",
			"name": "Medina",
			"country": "Saudi Arabia",
			"countryCode": "SA",
			"region": "Al Madinah Region",
			"regionCode": "03",
			"latitude": 24.466666666,
			"longitude": 39.6
		},
		{
			"id": 105103,
			"wikiDataId": "Q7636782",
			"type": "CITY",
			"city": "Sultanah",
			"name": "Sultanah",
			"country": "Saudi Arabia",
			"countryCode": "SA",
			"region": "Al Madinah Region",
			"regionCode": "03",
			"latitude": 24.5,
			"longitude": 39.5833
		},
		{
			"id": 105687,
			"wikiDataId": "Q160320",
			"type": "CITY",
			"city": "Dammam",
			"name": "Dammam",
			"country": "Saudi Arabia",
			"countryCode": "SA",
			"region": "Eastern Province",
			"regionCode": "04",
			"latitude": 26.433333333,
			"longitude": 50.1
		},
		{
			"id": 105330,
			"wikiDataId": "Q182640",
			"type": "CITY",
			"city": "Ta'if",
			"name": "Ta'if",
			"country": "Saudi Arabia",
			"countryCode": "SA",
			"region": "Makkah Region",
			"regionCode": "02",
			"latitude": 21.266666666,
			"longitude": 40.416666666
		},
		{
			"id": 105549,
			"wikiDataId": "Q244232",
			"type": "CITY",
			"city": "Tabuk, Saudi Arabia",
			"name": "Tabuk, Saudi Arabia",
			"country": "Saudi Arabia",
			"countryCode": "SA",
			"region": "Tabuk Region",
			"regionCode": "07",
			"latitude": 28.397222222,
			"longitude": 36.578888888
		},
		{
			"id": 105547,
			"wikiDataId": "Q259253",
			"type": "CITY",
			"city": "Buraidah",
			"name": "Buraidah",
			"country": "Saudi Arabia",
			"countryCode": "SA",
			"region": "Al-Qassim Region",
			"regionCode": "05",
			"latitude": 26.333333333,
			"longitude": 43.966666666
		},
		{
			"id": 105807,
			"wikiDataId": "Q759381",
			"type": "CITY",
			"city": "Khamis Mushait",
			"name": "Khamis Mushait",
			"country": "Saudi Arabia",
			"countryCode": "SA",
			"region": "'Asir Region",
			"regionCode": "14",
			"latitude": 18.3,
			"longitude": 42.733333333
		},
		{
			"id": 105250,
			"wikiDataId": "Q27400",
			"type": "ADM2",
			"city": "Hafar Al-Batin governorate",
			"name": "Hafar Al-Batin governorate",
			"country": "Saudi Arabia",
			"countryCode": "SA",
			"region": "Eastern Province",
			"regionCode": "04",
			"latitude": 28.434166666,
			"longitude": 45.963611111
		},
		{
			"id": 105564,
			"wikiDataId": "Q2162128",
			"type": "ADM2",
			"city": "Al-Kharj governorate",
			"name": "Al-Kharj governorate",
			"country": "Saudi Arabia",
			"countryCode": "SA",
			"region": "Riyadh Region",
			"regionCode": "01",
			"latitude": 24.14833,
			"longitude": 47.305
		},
		{
			"id": 106069,
			"wikiDataId": "Q27430",
			"type": "CITY",
			"city": "Jubail",
			"name": "Jubail",
			"country": "Saudi Arabia",
			"countryCode": "SA",
			"region": "Eastern Province",
			"regionCode": "04",
			"latitude": 27,
			"longitude": 49.666666666
		},
		{
			"id": 106036,
			"wikiDataId": "Q675568",
			"type": "CITY",
			"city": "Ha'il, Saudi Arabia",
			"name": "Ha'il, Saudi Arabia",
			"country": "Saudi Arabia",
			"countryCode": "SA",
			"region": "Ha'il Region",
			"regionCode": "06",
			"latitude": 27.516666666,
			"longitude": 41.683333333
		},
		{
			"id": 105561,
			"wikiDataId": "Q466027",
			"type": "ADM2",
			"city": "Yanbu governorate",
			"name": "Yanbu governorate",
			"country": "Saudi Arabia",
			"countryCode": "SA",
			"region": "Al Madinah Region",
			"regionCode": "03",
			"latitude": 24.083333333,
			"longitude": 38
		},
		{
			"id": 105479,
			"type": "CITY",
			"city": "Al Hufūf",
			"name": "Al Hufūf",
			"country": "Saudi Arabia",
			"countryCode": "SA",
			"region": "Eastern Province",
			"regionCode": "04",
			"latitude": 25.36467,
			"longitude": 49.58764
		},
		{
			"id": 106019,
			"wikiDataId": "Q31875209",
			"type": "CITY",
			"city": "Al Mubarraz",
			"name": "Al Mubarraz",
			"country": "Saudi Arabia",
			"countryCode": "SA",
			"region": "Eastern Province",
			"regionCode": "04",
			"latitude": 25.40768,
			"longitude": 49.59028
		},
		{
			"id": 105973,
			"wikiDataId": "Q27174",
			"type": "CITY",
			"city": "Najran",
			"name": "Najran",
			"country": "Saudi Arabia",
			"countryCode": "SA",
			"region": "Najran Region",
			"regionCode": "10",
			"latitude": 17.4917,
			"longitude": 44.1322
		},
		{
			"id": 105685,
			"wikiDataId": "Q311266",
			"type": "CITY",
			"city": "Khobar",
			"name": "Khobar",
			"country": "Saudi Arabia",
			"countryCode": "SA",
			"region": "Eastern Province",
			"regionCode": "04",
			"latitude": 26.3,
			"longitude": 50.216666666
		},
		{
			"id": 105206,
			"wikiDataId": "Q27258",
			"type": "CITY",
			"city": "Dawadmi",
			"name": "Dawadmi",
			"country": "Saudi Arabia",
			"countryCode": "SA",
			"region": "Riyadh Region",
			"regionCode": "01",
			"latitude": 24.494166666,
			"longitude": 44.383333333
		},
		{
			"id": 105276,
			"wikiDataId": "Q190948",
			"type": "CITY",
			"city": "Abha",
			"name": "Abha",
			"country": "Saudi Arabia",
			"countryCode": "SA",
			"region": "'Asir Region",
			"regionCode": "14",
			"latitude": 18.216666666,
			"longitude": 42.5
		},
		{
			"id": 105442,
			"wikiDataId": "Q626199",
			"type": "ADM2",
			"city": "Arar",
			"name": "Arar",
			"country": "Saudi Arabia",
			"countryCode": "SA",
			"region": "Northern Borders Region",
			"regionCode": "08",
			"latitude": 30.983333333,
			"longitude": 41.016666666
		},
		{
			"id": 106018,
			"wikiDataId": "Q268915",
			"type": "CITY",
			"city": "Dhahran",
			"name": "Dhahran",
			"country": "Saudi Arabia",
			"countryCode": "SA",
			"region": "Eastern Province",
			"regionCode": "04",
			"latitude": 26.266666666,
			"longitude": 50.15
		},
		{
			"id": 105558,
			"wikiDataId": "Q1878991",
			"type": "CITY",
			"city": "Ar Rass",
			"name": "Ar Rass",
			"country": "Saudi Arabia",
			"countryCode": "SA",
			"region": "Al-Qassim Region",
			"regionCode": "05",
			"latitude": 25.866666666,
			"longitude": 43.5
		},
		{
			"id": 105110,
			"wikiDataId": "Q27469",
			"type": "CITY",
			"city": "Sakakah",
			"name": "Sakakah",
			"country": "Saudi Arabia",
			"countryCode": "SA",
			"region": "Al Jawf Region",
			"regionCode": "12",
			"latitude": 29.969722222,
			"longitude": 40.2
		},
		{
			"id": 105621,
			"wikiDataId": "Q27660",
			"type": "CITY",
			"city": "Jizan",
			"name": "Jizan",
			"country": "Saudi Arabia",
			"countryCode": "SA",
			"region": "Jizan Region",
			"regionCode": "09",
			"latitude": 16.889166666,
			"longitude": 42.561111111
		},
		{
			"id": 105166,
			"wikiDataId": "Q2829401",
			"type": "CITY",
			"city": "Qurayyat",
			"name": "Qurayyat",
			"country": "Saudi Arabia",
			"countryCode": "SA",
			"region": "Al Jawf Region",
			"regionCode": "12",
			"latitude": 31.3167,
			"longitude": 37.3667
		},
		{
			"id": 165407,
			"type": "ADM2",
			"city": "Sabt Al Alayah",
			"name": "Sabt Al Alayah",
			"country": "Saudi Arabia",
			"countryCode": "SA",
			"region": "'Asir Region",
			"regionCode": "14",
			"latitude": 19.7,
			"longitude": 41.91667
		},
		{
			"id": 105933,
			"wikiDataId": "Q31875721",
			"type": "CITY",
			"city": "Al Qaţīf",
			"name": "Al Qaţīf",
			"country": "Saudi Arabia",
			"countryCode": "SA",
			"region": "Eastern Province",
			"regionCode": "04",
			"latitude": 26.56542,
			"longitude": 50.0089
		},
		{
			"id": 105874,
			"wikiDataId": "Q27176",
			"type": "CITY",
			"city": "Al Bahah",
			"name": "Al Bahah",
			"country": "Saudi Arabia",
			"countryCode": "SA",
			"region": "Al Bahah Region",
			"regionCode": "11",
			"latitude": 20.01288,
			"longitude": 41.46767
		},
		{
			"id": 105604,
			"wikiDataId": "Q32190514",
			"type": "CITY",
			"city": "Tārūt",
			"name": "Tārūt",
			"country": "Saudi Arabia",
			"countryCode": "SA",
			"region": "Eastern Province",
			"regionCode": "04",
			"latitude": 26.57332,
			"longitude": 50.03694
		},
		{
			"id": 105303,
			"wikiDataId": "Q27135",
			"type": "CITY",
			"city": "Bisha",
			"name": "Bisha",
			"country": "Saudi Arabia",
			"countryCode": "SA",
			"region": "'Asir Region",
			"regionCode": "14",
			"latitude": 20,
			"longitude": 42.6
		},
		{
			"id": 106082,
			"wikiDataId": "Q12189027",
			"type": "CITY",
			"city": "Alshafa",
			"name": "Alshafa",
			"country": "Saudi Arabia",
			"countryCode": "SA",
			"region": "Makkah Region",
			"regionCode": "02",
			"latitude": 21.07268,
			"longitude": 40.31842
		},
		{
			"id": 105346,
			"wikiDataId": "Q2744182",
			"type": "CITY",
			"city": "Saihat",
			"name": "Saihat",
			"country": "Saudi Arabia",
			"countryCode": "SA",
			"region": "Eastern Province",
			"regionCode": "04",
			"latitude": 26.475,
			"longitude": 50.041666666
		},
		{
			"id": 105163,
			"wikiDataId": "Q27256",
			"type": "ADM2",
			"city": "Badr governorate",
			"name": "Badr governorate",
			"country": "Saudi Arabia",
			"countryCode": "SA",
			"region": "Al Madinah Region",
			"regionCode": "03",
			"latitude": 23.78,
			"longitude": 38.790555555
		},
		{
			"id": 105532,
			"wikiDataId": "Q31875194",
			"type": "CITY",
			"city": "Al Mithnab",
			"name": "Al Mithnab",
			"country": "Saudi Arabia",
			"countryCode": "SA",
			"region": "Al-Qassim Region",
			"regionCode": "05",
			"latitude": 25.86012,
			"longitude": 44.22228
		},
		{
			"id": 105247,
			"wikiDataId": "Q31873774",
			"type": "CITY",
			"city": "Al Khafjī",
			"name": "Al Khafjī",
			"country": "Saudi Arabia",
			"countryCode": "SA",
			"region": "Eastern Province",
			"regionCode": "04",
			"latitude": 28.439166666,
			"longitude": 48.491388888
		},
		{
			"id": 106027,
			"wikiDataId": "Q1020805",
			"type": "CITY",
			"city": "Sabya",
			"name": "Sabya",
			"country": "Saudi Arabia",
			"countryCode": "SA",
			"region": "Jizan Region",
			"regionCode": "09",
			"latitude": 17.148992,
			"longitude": 42.625923
		},
		{
			"id": 105832,
			"wikiDataId": "Q31894563",
			"type": "CITY",
			"city": "Az Zulfi",
			"name": "Az Zulfi",
			"country": "Saudi Arabia",
			"countryCode": "SA",
			"region": "Riyadh Region",
			"regionCode": "01",
			"latitude": 26.299444444,
			"longitude": 44.815555555
		},
		{
			"id": 105308,
			"wikiDataId": "Q2821731",
			"type": "CITY",
			"city": "Abu `Arish",
			"name": "Abu `Arish",
			"country": "Saudi Arabia",
			"countryCode": "SA",
			"region": "Jizan Region",
			"regionCode": "09",
			"latitude": 16.9689,
			"longitude": 42.8325
		},
		{
			"id": 105703,
			"wikiDataId": "Q27234",
			"type": "CITY",
			"city": "Safwa City",
			"name": "Safwa City",
			"country": "Saudi Arabia",
			"countryCode": "SA",
			"region": "Eastern Province",
			"regionCode": "04",
			"latitude": 26.65,
			"longitude": 49.95
		},
		{
			"id": 105474,
			"wikiDataId": "Q27139",
			"type": "CITY",
			"city": "Afif",
			"name": "Afif",
			"country": "Saudi Arabia",
			"countryCode": "SA",
			"region": "Riyadh Region",
			"regionCode": "01",
			"latitude": 23.91,
			"longitude": 42.920277777
		},
		{
			"id": 105901,
			"wikiDataId": "Q27274",
			"type": "CITY",
			"city": "Rabigh",
			"name": "Rabigh",
			"country": "Saudi Arabia",
			"countryCode": "SA",
			"region": "Makkah Region",
			"regionCode": "02",
			"latitude": 22.8,
			"longitude": 39.0333
		},
		{
			"id": 105462,
			"wikiDataId": "Q27255",
			"type": "ADM2",
			"city": "Turaif",
			"name": "Turaif",
			"country": "Saudi Arabia",
			"countryCode": "SA",
			"region": "Northern Borders Region",
			"regionCode": "08",
			"latitude": 31.6775,
			"longitude": 38.653055555
		},
		{
			"id": 105181,
			"wikiDataId": "Q7672929",
			"type": "CITY",
			"city": "Tabarjal",
			"name": "Tabarjal",
			"country": "Saudi Arabia",
			"countryCode": "SA",
			"region": "Al Jawf Region",
			"regionCode": "12",
			"latitude": 30.5,
			"longitude": 38.2167
		},
		{
			"id": 105626,
			"wikiDataId": "Q7174030",
			"type": "CITY",
			"city": "Ad-Dilam",
			"name": "Ad-Dilam",
			"country": "Saudi Arabia",
			"countryCode": "SA",
			"region": "Riyadh Region",
			"regionCode": "01",
			"latitude": 23.991111111,
			"longitude": 47.161944444
		},
		{
			"id": 105694,
			"wikiDataId": "Q32190969",
			"type": "CITY",
			"city": "Umm Lajj",
			"name": "Umm Lajj",
			"country": "Saudi Arabia",
			"countryCode": "SA",
			"region": "Tabuk Region",
			"regionCode": "07",
			"latitude": 25.021388888,
			"longitude": 37.268611111
		},
		{
			"id": 105771,
			"wikiDataId": "Q27242",
			"type": "CITY",
			"city": "Al-`Ula",
			"name": "Al-`Ula",
			"country": "Saudi Arabia",
			"countryCode": "SA",
			"region": "Al Madinah Region",
			"regionCode": "03",
			"latitude": 26.6084813,
			"longitude": 37.9242897
		},
		{
			"id": 105131,
			"wikiDataId": "Q27177",
			"type": "ADM2",
			"city": "Abqaiq",
			"name": "Abqaiq",
			"country": "Saudi Arabia",
			"countryCode": "SA",
			"region": "Eastern Province",
			"regionCode": "04",
			"latitude": 25.933333333,
			"longitude": 49.666666666
		},
		{
			"id": 106059,
			"wikiDataId": "Q4164177",
			"type": "CITY",
			"city": "Samtah",
			"name": "Samtah",
			"country": "Saudi Arabia",
			"countryCode": "SA",
			"region": "Jizan Region",
			"regionCode": "09",
			"latitude": 16.597222222,
			"longitude": 42.943888888
		},
		{
			"id": 105149,
			"wikiDataId": "Q27251",
			"type": "CITY",
			"city": "Al Wajh",
			"name": "Al Wajh",
			"country": "Saudi Arabia",
			"countryCode": "SA",
			"region": "Tabuk Region",
			"regionCode": "07",
			"latitude": 26.283333333,
			"longitude": 36.416666666
		},
		{
			"id": 105118,
			"wikiDataId": "Q20397010",
			"type": "CITY",
			"city": "Al Bukayriyah",
			"name": "Al Bukayriyah",
			"country": "Saudi Arabia",
			"countryCode": "SA",
			"region": "Al-Qassim Region",
			"regionCode": "05",
			"latitude": 26.13915,
			"longitude": 43.65782
		},
		{
			"id": 105784,
			"wikiDataId": "Q4703017",
			"type": "CITY",
			"city": "Al-Namas",
			"name": "Al-Namas",
			"country": "Saudi Arabia",
			"countryCode": "SA",
			"region": "'Asir Region",
			"regionCode": "14",
			"latitude": 19.12,
			"longitude": 42.13
		},
		{
			"id": 105168,
			"wikiDataId": "Q27221",
			"type": "CITY",
			"city": "As Sulayyil",
			"name": "As Sulayyil",
			"country": "Saudi Arabia",
			"countryCode": "SA",
			"region": "Riyadh Region",
			"regionCode": "01",
			"latitude": 20.459722222,
			"longitude": 45.574444444
		},
		{
			"id": 105389,
			"wikiDataId": "Q32190427",
			"type": "CITY",
			"city": "Turabah",
			"name": "Turabah",
			"country": "Saudi Arabia",
			"countryCode": "SA",
			"region": "Makkah Region",
			"regionCode": "02",
			"latitude": 21.214166666,
			"longitude": 41.633055555
		},
		{
			"id": 105496,
			"wikiDataId": "Q12185747",
			"type": "CITY",
			"city": "Al Jumum",
			"name": "Al Jumum",
			"country": "Saudi Arabia",
			"countryCode": "SA",
			"region": "Makkah Region",
			"regionCode": "02",
			"latitude": 21.6167,
			"longitude": 39.7
		},
		{
			"id": 105329,
			"type": "CITY",
			"city": "Duba",
			"name": "Duba",
			"country": "Saudi Arabia",
			"countryCode": "SA",
			"region": "Tabuk Region",
			"regionCode": "07",
			"latitude": 27.35134,
			"longitude": 35.69014
		},
		{
			"id": 105890,
			"wikiDataId": "Q20381582",
			"type": "CITY",
			"city": "At Taraf",
			"name": "At Taraf",
			"country": "Saudi Arabia",
			"countryCode": "SA",
			"region": "Eastern Province",
			"regionCode": "04",
			"latitude": 25.358333333,
			"longitude": 49.725
		},
		{
			"id": 105125,
			"wikiDataId": "Q3543647",
			"type": "CITY",
			"city": "Qaisumah",
			"name": "Qaisumah",
			"country": "Saudi Arabia",
			"countryCode": "SA",
			"region": "Eastern Province",
			"regionCode": "04",
			"latitude": 28.3097,
			"longitude": 46.1275
		},
		{
			"id": 105270,
			"wikiDataId": "Q31872122",
			"type": "CITY",
			"city": "Al Baţţālīyah",
			"name": "Al Baţţālīyah",
			"country": "Saudi Arabia",
			"countryCode": "SA",
			"region": "Eastern Province",
			"regionCode": "04",
			"latitude": 25.433333333,
			"longitude": 49.633333333
		},
		{
			"id": 105148,
			"wikiDataId": "Q31875344",
			"type": "CITY",
			"city": "Al Munayzilah",
			"name": "Al Munayzilah",
			"country": "Saudi Arabia",
			"countryCode": "SA",
			"region": "Eastern Province",
			"regionCode": "04",
			"latitude": 25.383333333,
			"longitude": 49.666666666
		},
		{
			"id": 106080,
			"type": "CITY",
			"city": "Adh Dhibiyah",
			"name": "Adh Dhibiyah",
			"country": "Saudi Arabia",
			"countryCode": "SA",
			"region": "Al-Qassim Region",
			"regionCode": "05",
			"latitude": 26.027,
			"longitude": 43.157
		},
		{
			"id": 105343,
			"wikiDataId": "Q31874518",
			"type": "CITY",
			"city": "Al Majāridah",
			"name": "Al Majāridah",
			"country": "Saudi Arabia",
			"countryCode": "SA",
			"region": "'Asir Region",
			"regionCode": "14",
			"latitude": 19.123611111,
			"longitude": 41.911111111
		},
		{
			"id": 3187421,
			"wikiDataId": "Q3527917",
			"type": "ADM2",
			"city": "Al-H̨arīq governorate",
			"name": "Al-H̨arīq governorate",
			"country": "Saudi Arabia",
			"countryCode": "SA",
			"region": "Riyadh Region",
			"regionCode": "01",
			"latitude": 23.63,
			"longitude": 46.51
		},
		{
			"id": 105193,
			"wikiDataId": "Q32189686",
			"type": "CITY",
			"city": "Tanūmah",
			"name": "Tanūmah",
			"country": "Saudi Arabia",
			"countryCode": "SA",
			"region": "Al-Qassim Region",
			"regionCode": "05",
			"latitude": 27.1,
			"longitude": 44.133333333
		},
		{
			"id": 2974502,
			"wikiDataId": "Q12191043",
			"type": "CITY",
			"city": "Al Fawarah",
			"name": "Al Fawarah",
			"country": "Saudi Arabia",
			"countryCode": "SA",
			"region": "Al-Qassim Region",
			"regionCode": "05",
			"latitude": 26.06235,
			"longitude": 42.65913
		},
		{
			"id": 105286,
			"wikiDataId": "Q31875811",
			"type": "CITY",
			"city": "Al Qurayn",
			"name": "Al Qurayn",
			"country": "Saudi Arabia",
			"countryCode": "SA",
			"region": "Eastern Province",
			"regionCode": "04",
			"latitude": 25.483333333,
			"longitude": 49.6
		},
		{
			"id": 105312,
			"wikiDataId": "Q32190880",
			"type": "CITY",
			"city": "Umm as Sāhik",
			"name": "Umm as Sāhik",
			"country": "Saudi Arabia",
			"countryCode": "SA",
			"region": "Eastern Province",
			"regionCode": "04",
			"latitude": 26.653611111,
			"longitude": 49.916388888
		},
		{
			"id": 105309,
			"wikiDataId": "Q32188864",
			"type": "CITY",
			"city": "Sājir",
			"name": "Sājir",
			"country": "Saudi Arabia",
			"countryCode": "SA",
			"region": "Riyadh Region",
			"regionCode": "01",
			"latitude": 25.1825,
			"longitude": 44.599722222
		},
		{
			"id": 105394,
			"wikiDataId": "Q4164621",
			"type": "CITY",
			"city": "Al-Awjam",
			"name": "Al-Awjam",
			"country": "Saudi Arabia",
			"countryCode": "SA",
			"region": "Eastern Province",
			"regionCode": "04",
			"latitude": 26.5583,
			"longitude": 49.9503
		},
		{
			"id": 105108,
			"wikiDataId": "Q5245795",
			"type": "CITY",
			"city": "Farasan",
			"name": "Farasan",
			"country": "Saudi Arabia",
			"countryCode": "SA",
			"region": "Jizan Region",
			"regionCode": "09",
			"latitude": 16.7022,
			"longitude": 42.1183
		},
		{
			"id": 105999,
			"wikiDataId": "Q31875144",
			"type": "CITY",
			"city": "Al Mindak",
			"name": "Al Mindak",
			"country": "Saudi Arabia",
			"countryCode": "SA",
			"region": "Al Bahah Region",
			"regionCode": "11",
			"latitude": 20.158888888,
			"longitude": 41.283333333
		},
		{
			"id": 105640,
			"wikiDataId": "Q31871949",
			"type": "CITY",
			"city": "Al Arţāwīyah",
			"name": "Al Arţāwīyah",
			"country": "Saudi Arabia",
			"countryCode": "SA",
			"region": "Riyadh Region",
			"regionCode": "01",
			"latitude": 26.50387,
			"longitude": 45.34813
		},
		{
			"id": 105595,
			"wikiDataId": "Q31875851",
			"type": "CITY",
			"city": "Al Qārah",
			"name": "Al Qārah",
			"country": "Saudi Arabia",
			"countryCode": "SA",
			"region": "Eastern Province",
			"regionCode": "04",
			"latitude": 25.416666666,
			"longitude": 49.666666666
		},
		{
			"id": 105884,
			"wikiDataId": "Q32139417",
			"type": "CITY",
			"city": "Marāt",
			"name": "Marāt",
			"country": "Saudi Arabia",
			"countryCode": "SA",
			"region": "Riyadh Region",
			"regionCode": "01",
			"latitude": 25.07007,
			"longitude": 45.46147
		},
		{
			"id": 105997,
			"wikiDataId": "Q31873138",
			"type": "CITY",
			"city": "Al Jafr",
			"name": "Al Jafr",
			"country": "Saudi Arabia",
			"countryCode": "SA",
			"region": "Eastern Province",
			"regionCode": "04",
			"latitude": 25.37736,
			"longitude": 49.72154
		},
		{
			"id": 105998,
			"wikiDataId": "Q32219471",
			"type": "CITY",
			"city": "Şuwayr",
			"name": "Şuwayr",
			"country": "Saudi Arabia",
			"countryCode": "SA",
			"region": "Al Jawf Region",
			"regionCode": "12",
			"latitude": 30.117222222,
			"longitude": 40.389166666
		},
		{
			"id": 105916,
			"wikiDataId": "Q32190410",
			"type": "CITY",
			"city": "Tumayr",
			"name": "Tumayr",
			"country": "Saudi Arabia",
			"countryCode": "SA",
			"region": "Riyadh Region",
			"regionCode": "01",
			"latitude": 25.70393,
			"longitude": 45.86796
		},
		{
			"id": 105526,
			"wikiDataId": "Q31892461",
			"type": "CITY",
			"city": "At Tūbī",
			"name": "At Tūbī",
			"country": "Saudi Arabia",
			"countryCode": "SA",
			"region": "Eastern Province",
			"regionCode": "04",
			"latitude": 26.557777777,
			"longitude": 49.991666666
		},
		{
			"id": 105188,
			"wikiDataId": "Q4704123",
			"type": "CITY",
			"city": "Al Jaradiyah",
			"name": "Al Jaradiyah",
			"country": "Saudi Arabia",
			"countryCode": "SA",
			"region": "Jizan Region",
			"regionCode": "09",
			"latitude": 16.5794,
			"longitude": 42.9125
		},
		{
			"id": 105546,
			"wikiDataId": "Q31875487",
			"type": "CITY",
			"city": "Al Muwayh",
			"name": "Al Muwayh",
			"country": "Saudi Arabia",
			"countryCode": "SA",
			"region": "Makkah Region",
			"regionCode": "02",
			"latitude": 22.43333,
			"longitude": 41.75829
		},
		{
			"id": 105182,
			"wikiDataId": "Q31890141",
			"type": "CITY",
			"city": "As Saffānīyah",
			"name": "As Saffānīyah",
			"country": "Saudi Arabia",
			"countryCode": "SA",
			"region": "Eastern Province",
			"regionCode": "04",
			"latitude": 27.970833333,
			"longitude": 48.73
		},
		{
			"id": 105777,
			"wikiDataId": "Q4703935",
			"type": "CITY",
			"city": "Al Hada",
			"name": "Al Hada",
			"country": "Saudi Arabia",
			"countryCode": "SA",
			"region": "Makkah Region",
			"regionCode": "02",
			"latitude": 21.3686,
			"longitude": 40.2847
		},
		{
			"id": 106083,
			"wikiDataId": "Q31874729",
			"type": "CITY",
			"city": "Al Markaz",
			"name": "Al Markaz",
			"country": "Saudi Arabia",
			"countryCode": "SA",
			"region": "Eastern Province",
			"regionCode": "04",
			"latitude": 25.4,
			"longitude": 49.733333333
		},
		{
			"id": 105207,
			"wikiDataId": "Q32140978",
			"type": "CITY",
			"city": "Mislīyah",
			"name": "Mislīyah",
			"country": "Saudi Arabia",
			"countryCode": "SA",
			"region": "Jizan Region",
			"regionCode": "09",
			"latitude": 17.46,
			"longitude": 42.557222222
		},
		{
			"id": 105326,
			"wikiDataId": "Q31875523",
			"type": "CITY",
			"city": "Al Muţayrifī",
			"name": "Al Muţayrifī",
			"country": "Saudi Arabia",
			"countryCode": "SA",
			"region": "Eastern Province",
			"regionCode": "04",
			"latitude": 25.47878,
			"longitude": 49.55824
		},
		{
			"id": 105800,
			"wikiDataId": "Q32141037",
			"type": "CITY",
			"city": "Mizhirah",
			"name": "Mizhirah",
			"country": "Saudi Arabia",
			"countryCode": "SA",
			"region": "Jizan Region",
			"regionCode": "09",
			"latitude": 16.826111111,
			"longitude": 42.733333333
		},
		{
			"id": 105731,
			"wikiDataId": "Q31868833",
			"type": "CITY",
			"city": "Ad Darb",
			"name": "Ad Darb",
			"country": "Saudi Arabia",
			"countryCode": "SA",
			"region": "Jizan Region",
			"regionCode": "09",
			"latitude": 17.722777777,
			"longitude": 42.2525
		},
		{
			"id": 105420,
			"wikiDataId": "Q32130900",
			"type": "CITY",
			"city": "Julayjilah",
			"name": "Julayjilah",
			"country": "Saudi Arabia",
			"countryCode": "SA",
			"region": "Eastern Province",
			"regionCode": "04",
			"latitude": 25.5,
			"longitude": 49.6
		},
		{
			"id": 105993,
			"wikiDataId": "Q32141302",
			"type": "CITY",
			"city": "Mulayjah",
			"name": "Mulayjah",
			"country": "Saudi Arabia",
			"countryCode": "SA",
			"region": "Eastern Province",
			"regionCode": "04",
			"latitude": 27.271111111,
			"longitude": 48.424166666
		},
		{
			"id": 105691,
			"wikiDataId": "Q31872595",
			"type": "CITY",
			"city": "Al Fuwayliq",
			"name": "Al Fuwayliq",
			"country": "Saudi Arabia",
			"countryCode": "SA",
			"region": "Al-Qassim Region",
			"regionCode": "05",
			"latitude": 26.4436,
			"longitude": 43.25164
		},
		{
			"id": 105355,
			"wikiDataId": "Q32189185",
			"type": "CITY",
			"city": "Tabālah",
			"name": "Tabālah",
			"country": "Saudi Arabia",
			"countryCode": "SA",
			"region": "'Asir Region",
			"regionCode": "14",
			"latitude": 19.95,
			"longitude": 42.4
		},
		{
			"id": 165473,
			"wikiDataId": "Q65065367",
			"type": "CITY",
			"city": "Ghran",
			"name": "Ghran",
			"country": "Saudi Arabia",
			"countryCode": "SA",
			"region": "Makkah Region",
			"regionCode": "02",
			"latitude": 21.98027,
			"longitude": 39.36521
		},
		{
			"id": 105266,
			"wikiDataId": "Q20394853",
			"type": "CITY",
			"city": "Ain AlBaraha",
			"name": "Ain AlBaraha",
			"country": "Saudi Arabia",
			"countryCode": "SA",
			"region": "Riyadh Region",
			"regionCode": "01",
			"latitude": 24.75806,
			"longitude": 43.77389
		},
		{
			"id": 105581,
			"type": "CITY",
			"city": "Wed Alnkil",
			"name": "Wed Alnkil",
			"country": "Saudi Arabia",
			"countryCode": "SA",
			"region": "Al-Qassim Region",
			"regionCode": "05",
			"latitude": 25.4267,
			"longitude": 42.8343
		},
		{
			"id": 105689,
			"type": "CITY",
			"city": "shokhaibٍ",
			"name": "shokhaibٍ",
			"country": "Saudi Arabia",
			"countryCode": "SA",
			"region": "Riyadh Region",
			"regionCode": "01",
			"latitude": 24.49023,
			"longitude": 46.26871
		}
	]
}
